     2.11           OBSERVATION DATA    G (GPS)             RINEX VERSION / TYPE
teqc  2016Feb12     UNAVCO Archive Ops  20160225 03:54:20UTCPGM / RUN BY / DATE
Solaris x86 5.10|AMD64|cc SC5.8 -xarch=amd64|=+|=+          COMMENT
BIT 2 OF LLI FLAGS DATA COLLECTED UNDER A/S CONDITION       COMMENT
GLS1                                                        MARKER NAME
                                                            MARKER NUMBER
David Simpson       IRIS                                    OBSERVER / AGENCY
5105K73476          TRIMBLE NETR9       4.61:b57            REC # / TYPE / VERS
60178002            TRM41249.00     NONE                    ANT # / TYPE
  1763793.3081 -1846359.1023  5827457.6470                  APPROX POSITION XYZ
        0.0000        0.0000        0.0000                  ANTENNA: DELTA H/E/N
     1     1                                                WAVELENGTH FACT L1/2
     7    L1    L2    C1    P2    P1    S1    S2            # / TYPES OF OBSERV
    30.0000                                                 INTERVAL
    17                                                      LEAP SECONDS
input file: gls1201602240000.tgd                            COMMENT
RINEX file created by UNAVCO GPS Archive.                   COMMENT
For more information contact archive@unavco.org             COMMENT
Monument ID: 23430                                          COMMENT
UNAVCO 4-char name:   GLS1                                  COMMENT
4-char name from Log or data file: GLS1                     COMMENT
Monument location: 66.4793959439 -46.3101516098 2150        COMMENT
Visit ID: 106319                                            COMMENT
End of DB comments                                          COMMENT
 SNR is mapped to RINEX snr flag value [0-9]                COMMENT
  L1 & L2: min(max(int(snr_dBHz/6), 0), 9)                  COMMENT
  2016     2    24     0     0    0.0000000     GPS         TIME OF FIRST OBS
                                                            END OF HEADER
 16  2 24  0  0  0.0000000  0 10G08G30G21G05G16G09G27G26G07G20
 117559652.376 7  91604940.47445  22370854.820    22370860.594
        46.700          31.600
 125394851.655 7  97710319.03743  23861844.664    23861850.672
        42.400          22.500
 120633780.088 7  94000345.88744  22955840.023    22955842.984
        42.500          29.500
 130326637.476 7 101553244.98343  24800338.875    24800342.363
        42.700          22.200
 111101676.993 8  86572850.31046  21141959.742    21141962.000
        49.900          37.100
 126085421.011 6  98248288.67443  23993229.656    23993235.781
        40.800          22.500
 108532412.383 8  84570688.55246  20653009.125    20653012.848
        51.800          41.300
 122047248.202 7  95101718.36844  23224806.359    23224814.594
        43.800          28.300
 114600677.673 7  89299269.70945  21807777.297    21807779.789
        47.900          35.200
 123886759.539 7  96535179.35243  23574868.094    23574870.117
        42.300          22.300
 16  2 24  0  0 30.0000000  0 10G08G30G21G05G16G09G27G26G07G20
 117466762.232 7  91532558.80345  22353177.625    22353183.809
        46.000          31.400
 125295128.763 7  97632613.01543  23842868.422    23842873.258
        42.000          23.600
 120656303.316 7  94017896.94045  22960126.789    22960127.641
        42.600          30.700
 130395949.668 7 101607254.47143  24813528.250    24813531.738
        42.300          21.800
 111169461.859 8  86625669.59946  21154858.773    21154861.676
        49.200          37.100
 126176919.302 6  98319586.06543  24010640.469    24010647.941
        40.500          22.600
 108493349.083 8  84540249.85847  20645575.461    20645579.594
        51.500          42.000
 122149791.897 7  95181622.48744  23244321.539    23244327.664
        44.100          28.900
 114542721.617 8  89254109.17745  21796749.508    21796752.059
        48.500          34.700
 123882497.672 6  96531858.88043  23574056.141    23574058.281
        41.700          22.800
 16  2 24  0  1  0.0000000  0 10G08G30G21G05G16G09G27G26G07G20
 117374191.061 7  91460425.52545  22335561.664    22335567.965
        45.700          31.500
 125195679.968 6  97555120.52943  23823943.727    23823949.031
        41.700          22.900
 120679313.709 7  94035826.18445  22964505.484    22964507.449
        44.100          30.000
 130465702.302 7 101661607.18143  24826799.664    24826805.672
        43.400          21.500
 111237668.051 8  86678817.11146  21167838.484    21167841.035
        49.400          38.000
 126268727.894 6  98391125.28243  24028111.414    24028118.477
        40.000          22.300
 108454834.608 8  84510238.36946  20638245.813    20638250.531
        50.900          41.800
 122252549.690 7  95261693.34844  23263874.805    23263881.398
        43.800          27.900
 114485273.756 8  89209344.51545  21785817.820    21785820.664
        49.100          34.700
 123878850.033 7  96529016.83344  23573363.219    23573365.418
        42.900          24.100
 16  2 24  0  1 30.0000000  0 10G08G30G21G05G16G09G27G26G07G20
 117281940.798 7  91388541.96345  22318006.078    22318013.375
        44.900          31.100
 125096508.236 7  97477843.97344  23805071.727    23805077.441
        42.100          26.500
 120702816.248 7  94054140.64445  22968977.602    22968979.332
        44.700          30.500
 130535893.844 6 101716301.97243  24840158.625    24840162.641
        41.700          20.600
 111306293.886 8  86732291.54846  21180897.336    21180900.180
        48.800          37.400
 126360844.425 6  98462904.59043  24045640.109    24045648.344
        40.400          22.300
 108416871.576 8  84480656.95246  20631022.219    20631026.059
        51.500          41.600
 122355520.382 7  95341930.20644  23283469.594    23283476.422
        42.600          28.300
 114428336.998 7  89164978.46045  21774980.695    21774985.121
        47.800          35.000
 123875817.603 7  96526654.32643  23572784.836    23572787.504
        42.000          22.200
 16  2 24  0  2  0.0000000  0 10G08G30G21G05G16G09G27G26G07G20
 117190014.254 7  91316911.11145  22300514.188    22300520.020
        45.600          32.100
 124997615.297 6  97400784.66444  23786253.461    23786259.117
        41.200          26.400
 120726805.103 7  94072833.35045  22973543.922    22973544.480
        44.100          31.200
 130606521.187 6 101771336.45643  24853596.672    24853602.211
        41.600          20.400
 111375338.200 8  86786092.43746  21194035.273    21194038.469
        48.800          36.600
 126453265.086 6  98534921.11843  24063227.586    24063234.531
        40.200          22.000
 108379459.241 8  84451504.57546  20623902.531    20623906.605
        50.900          41.900
 122458701.059 7  95422330.62944  23303105.250    23303111.434
        42.500          26.800
 114371911.580 7  89121010.69645  21764242.477    21764248.367
        47.600          34.800
 123873399.502 6  96524770.46643  23572324.875    23572327.016
        41.800          22.200
 16  2 24  0  2 30.0000000  0 11G08G30G21G05G16G09G27G26G07G18G20
 117098413.337 7  91245534.02545  22283083.742    22283087.758
        46.600          32.600
 124899004.859 6  97323945.50644  23767488.172    23767493.652
        41.300          26.700
 120751281.715 7  94091906.08445  22978200.305    22978202.445
        44.500          30.900
 130677582.403 7 101826708.83643  24867119.727    24867124.270
        42.200          18.600
 111444800.097 8  86840218.97846  21207254.266    21207256.055
        49.200          36.900
 126545987.102 6  98607172.15543  24080872.883    24080877.777
        39.400          22.200
 108342599.913 8  84422783.29046  20616887.797    20616893.102
        50.800          41.400
 122562091.065 7  95502894.08144  23322780.000    23322785.773
        43.000          27.700
 114316000.910 8  89077443.94045  21753605.664    21753608.684
        48.800          35.500
 132297288.16515                  25175333.484
        32.900
 123871597.431 6  96523366.78743  23571980.984    23571983.945
        41.600          23.200
 16  2 24  0  3  0.0000000  0 11G08G30G21G05G16G09G27G26G07G18G20
 117007138.981 7  91174411.38545  22265714.094    22265719.340
        46.600          32.700
 124800678.528 6  97247327.74744  23748777.711    23748782.898
        41.400          26.600
 120776244.016 7  94111357.13544  22982951.023    22982952.695
        44.600          29.500
 130749074.451 6 101882417.04043  24880724.133    24880728.969
        40.200          18.300
 111514676.316 8  86894668.20045  21220551.164    21220553.129
        48.700          35.900
 126639007.210 6  98679655.45243  24098573.164    24098578.762
        39.400          20.900
 108306292.348 8  84394491.54346  20609979.391    20609983.230
        51.300          41.600
 122665688.161 7  95583619.04744  23342493.500    23342499.801
        42.600          27.600
 114260606.414 8  89034279.43845  21743064.648    21743067.609
        48.800          34.900
 132217396.51215                  25160132.828
        33.200
 123870409.793 6  96522441.59943  23571754.891    23571757.852
        40.900          22.300
 16  2 24  0  3 30.0000000  0 11G08G30G21G05G16G09G27G26G07G18G20
 116916193.626 7  91103544.94645  22248408.953    22248413.086
        46.400          31.700
 124702639.563 6  97170933.90044  23730121.508    23730126.109
        40.700          26.800
 120801692.504 7  94131186.94445  22987794.211    22987795.531
        44.600          30.400
 130820995.228 7 101938459.23243  24894410.852    24894414.691
        42.100          18.600
 111584966.402 7  86949439.96346  21233924.508    21233929.051
        47.900          36.100
 126732323.517 6  98752369.77843  24116331.578    24116335.594
        39.900          22.500
 108270539.550 8  84366632.40646  20603176.586    20603179.430
        51.300          41.800
 122769490.743 7  95664503.95144  23362246.281    23362252.641
        43.400          27.700
 114205730.736 8  88991519.15645  21732620.578    21732624.828
        48.200          34.700
 132137729.86715                  25144971.594
        33.500
 123869837.601 6  96521995.85343  23571644.867    23571648.766
        40.700          22.900
 16  2 24  0  4  0.0000000  0 11G08G30G21G05G16G09G27G26G07G18G20
 116825579.081 7  91032936.30045  22231164.008    22231169.723
        46.500          32.600
 124604890.100 6  97094765.57844  23711520.438    23711525.684
        41.200          25.800
 120827624.421 7  94151392.99044  22992727.305    22992729.797
        43.300          29.700
 130893341.493 6 101994832.88542  24908176.922    24908182.520
        41.700          17.400
 111655667.879 8  87004532.08845  21247378.672    21247382.336
        48.300          35.800
 126825932.009 6  98825311.67943  24134143.563    24134148.867
        38.800          21.700
 108235340.962 8  84339204.99646  20596477.109    20596481.477
        51.100          41.600
 122873496.748 7  95745547.23944  23382039.352    23382045.242
        44.400          26.700
 114151376.045 8  88949164.91946  21722277.867    21722280.828
        48.700          36.100
 132058289.93815                  25129854.031
        34.100
 123869881.045 7  96522029.88543  23571654.516    23571656.539
        42.200          22.300
 16  2 24  0  4 30.0000000  0 11G08G30G21G05G16G09G27G26G07G18G20
 116735296.483 7  90962586.06945  22213984.336    22213989.582
        45.300          32.900
 124507432.653 6  97018824.81844  23692973.266    23692980.035
        39.400          25.200
 120854040.423 7  94171976.16945  22997755.625    22997757.941
        44.300          30.200
 130966110.811 6 102051536.21442  24922024.484    24922030.668
        38.400          17.800
 111726778.978 8  87059943.32046  21260912.813    21260914.426
        48.900          37.300
 126919829.476 6  98898478.56043  24152010.969    24152016.742
        38.700          21.100
 108200697.754 8  84312210.46246  20589884.375    20589888.801
        50.800          40.900
 122977705.580 7  95826749.08044  23401869.992    23401875.531
        43.900          27.700
 114097543.652 8  88907217.76146  21712034.070    21712037.441
        48.800          36.400
 131979079.124 5                  25114781.500
        34.800
 123870540.119 6  96522543.65043  23571779.156    23571781.180
        41.400          22.800
 16  2 24  0  5  0.0000000  0 11G08G30G21G05G16G09G27G26G07G18G20
 116645348.712 7  90892496.82145  22196868.031    22196873.863
        46.400          31.300
 124410270.113 6  96943113.84644  23674482.648    23674490.063
        38.900          25.700
 120880940.188 7  94192936.68645  23002874.750    23002877.945
        44.600          30.400
 131039301.346 6 102108567.72943  24935952.266    24935957.570
        41.800          18.300
 111798298.994 8  87115673.41446  21274522.438    21274524.109
        49.100          36.900
 127014013.580 6  98971868.77243  24169933.883    24169939.715
        38.900          22.300
 108166610.128 8  84285648.57846  20583398.242    20583402.023
        51.500          41.600
 123082114.186 7  95908106.28044  23421737.961    23421743.324
        42.800          26.300
 114044235.490 8  88865679.02146  21701889.844    21701892.688
        49.100          36.000
 131900099.532 6                  25099755.547
        36.600
 123871814.913 7  96523537.16743  23572021.609    23572023.867
        42.000          22.800
 16  2 24  0  5 30.0000000  0 11G08G30G21G05G16G09G27G26G07G18G20
 116555737.307 7  90822669.81445  22179814.344    22179820.938
        45.600          31.600
 124313404.706 6  96867634.38444  23656051.742    23656057.340
        40.600          25.800
 120908322.957 7  94214273.76544  23008083.922    23008087.879
        43.600          29.600
 131112910.050 7 102165925.15043  24949960.180    24949964.488
        42.100          18.300
 111870225.750 8  87171720.46346  21288209.266    21288210.879
        49.600          37.300
 127108481.244 6  99045480.03143  24187911.711    24187915.375
        39.200          20.900
 108133079.870 8  84259521.43346  20577017.273    20577021.230
        51.200          41.500
 123186721.243 7  95989618.22544  23441643.633    23441649.172
        43.300          26.100
 113991453.639 8  88824550.46345  21691846.148    21691848.875
        48.900          35.200
 131821353.988 6                  25084770.141
        37.200
 123873705.333 6  96525010.37143  23572381.031    23572383.289
        40.900          22.500
 16  2 24  0  6  0.0000000  0 11G08G30G21G05G16G09G27G26G07G18G20
 116466464.638 7  90753107.17845  22162826.578    22162832.469
        46.000          31.800
 124216838.669 6  96792388.18744  23637675.180    23637680.777
        41.300          26.700
 120936186.417 7  94235985.45944  23013387.914    23013390.699
        43.800          28.900
 131186934.487 6 102223606.58643  24964046.586    24964051.598
        41.800          18.600
 111942556.495 8  87228081.94446  21301973.531    21301975.320
        50.000          37.300
 127203228.845 6  99119309.36343  24205942.242    24205944.793
        39.100          20.600
 108100106.786 8  84233828.52046  20570741.219    20570746.523
        51.300          41.300
 123291524.470 7  96071282.96544  23461587.063    23461593.012
        43.500          26.300
 113939199.441 8  88783832.93246  21681903.086    21681905.578
        49.400          36.900
 131742844.412 6                  25069828.836
        36.500
 123876210.766 6  96526962.67143  23572857.219    23572860.004
        40.600          22.000
 16  2 24  0  6 30.0000000  0 11G08G30G21G05G16G09G27G26G07G18G20
 116377531.529 7  90683808.92345  22145903.914    22145908.809
        47.300          33.200
 124120574.997 6  96717377.57244  23619356.352    23619362.418
        41.700          26.000
 120964531.876 7  94258073.54145  23018781.516    23018783.539
        44.100          30.300
 131261371.100 7 102281608.83143  24978211.977    24978217.574
        42.000          18.300
 112015291.247 8  87284758.42546  21315814.773    21315816.211
        49.600          36.800
 127298253.899 6  99193354.90943  24224024.930    24224028.711
        39.400          21.700
 108067690.863 8  84208569.31046  20564574.117    20564577.547
        51.000          41.200
 123396522.631 7  96153099.57444  23481567.289    23481573.648
        43.000          26.500
 113887474.992 8  88743527.96446  21672058.750    21672063.352
        48.800          36.100
 131664573.775 5                  25054933.852
        35.500
 123879332.153 6  96529394.93043  23573450.406    23573454.656
        40.300          21.700
 16  2 24  0  7  0.0000000  0 11G08G30G21G05G16G09G27G26G07G18G20
 116288939.108 7  90614775.67745  22129045.813    22129049.770
        46.500          32.900
 124024616.126 7  96642604.46044  23601095.523    23601101.707
        42.000          26.800
 120993355.278 7  94280533.37344  23024266.570    23024268.301
        43.900          29.600
 131336218.692 6 102339931.48442  24992455.016    24992460.965
        41.600          17.800
 112088427.124 8  87341747.25746  21329732.000    21329733.262
        49.600          36.600
 127393552.990 6  99267613.88443  24242158.352    24242163.246
        39.300          21.800
 108035832.956 8  84183744.67146  20558511.438    20558515.805
        51.500          41.300
 123501713.946 7  96235066.84244  23501585.531    23501590.719
        44.100          25.700
 113836282.173 8  88703637.18946  21662316.625    21662321.578
        48.600          36.500
 131586544.031 6                  25040086.234
        36.400
 123883069.206 6  96532307.10543  23574161.406    23574165.188
        40.500          21.800
 16  2 24  0  7 30.0000000  0 11G08G30G21G05G16G09G27G26G07G18G20
 116200690.773 7  90546010.38345  22112253.531    22112256.727
        46.600          33.400
 123928965.226 7  96568071.24144  23582894.000    23582898.953
        42.300          26.000
 121022658.590 7  94303367.56444  23029842.852    23029843.703
        43.900          28.900
 131411474.758 6 102398572.49042  25006776.695    25006781.531
        41.200          16.900
 112161963.886 8  87399048.54146  21343725.508    21343727.063
        49.500          36.400
 127489123.310 6  99342083.73843  24260344.984    24260349.117
        38.700          20.600
 108004535.530 8  84159357.02346  20552555.789    20552560.039
        50.200          41.700
 123607097.238 7  96317183.65044  23521640.281    23521644.473
        43.800          27.000
 113785624.892 8  88664164.00945  21652676.406    21652681.301
        48.600          35.500
 131508759.082 6                  25025284.445
        37.100
 123887422.954 6  96535699.87443  23574992.813    23574993.664
        41.900          22.000
 16  2 24  0  8  0.0000000  0 11G08G30G21G05G16G09G27G26G07G18G20
 116112787.415 7  90477513.96745  22095524.750    22095530.641
        46.800          33.000
 123833623.711 7  96493779.10544  23564751.320    23564756.859
        42.500          25.700
 121052436.950 7  94326571.04144  23035509.758    23035509.848
        44.700          29.300
 131487135.167 6 102457528.49142  25021173.719    25021179.199
        37.800          17.800
 112235897.974 8  87456659.31446  21357795.180    21357796.148
        49.000          36.500
 127584962.663 6  99416763.93543  24278582.063    24278587.719
        39.000          21.500
 107973796.880 8  84135404.56047  20546706.398    20546711.469
        51.500          42.000
 123712669.336 7  96399447.52044  23541727.664    23541734.316
        42.000          26.700
 113735503.029 8  88625108.15246  21643139.148    21643143.047
        49.000          36.300
 131431218.333 6 102413935.79952  25010529.719    25010530.277
        37.200          13.900
 123892391.449 6  96539571.64443  23575934.844    23575938.801
        40.100          21.500
 16  2 24  0  8 30.0000000  0 11G08G30G21G05G16G09G27G26G07G18G20
 116025232.794 7  90409289.54645  22078863.109    22078869.469
        45.000          31.600
 123738595.847 7  96419731.44144  23546668.492    23546673.387
        43.500          25.800
 121082692.659 7  94350146.51544  23041266.719    23041268.566
        44.200          28.800
 131563198.800 6 102516798.43443  25035649.250    25035653.266
        36.500          18.600
 112310230.233 8  87514580.56645  21371938.523    21371941.309
        48.100          35.900
 127681067.839 6  99491650.97743  24296869.148    24296875.332
        38.200          21.700
 107943619.403 8  84111889.22846  20540964.125    20540968.668
        50.600          41.800
 123818430.281 7  96481858.56544  23561853.703    23561859.594
        42.300          26.400
 113685919.623 8  88586471.79746  21633704.773    21633707.734
        49.000          36.400
 131353924.031 6 102353704.23842  24995821.250    24995822.922
        36.400          15.600
 123897976.452 6  96543924.07043  23576998.430    23577001.039
        41.600          22.000
 16  2 24  0  9  0.0000000  0 11G08G30G21G05G16G09G27G26G07G18G20
 115938025.970 7  90341335.95745  22062269.070    22062274.258
        45.500          33.300
 123643882.010 7  96345928.49344  23528644.414    23528650.129
        43.100          26.200
 121113422.438 7  94374091.03044  23047115.242    23047117.441
        45.300          29.100
 131639661.727 6 102576379.80342  25050199.461    25050204.180
        39.000          15.600
 112384956.232 7  87572808.58745  21386159.242    21386161.500
        47.900          35.900
 127777433.469 6  99566740.55843  24315208.516    24315213.059
        38.400          21.700
 107914002.619 8  84088811.18746  20535329.906    20535333.395
        51.800          41.700
 123924375.987 7  96564413.52544  23582015.492    23582020.855
        42.900          27.300
 113636874.737 8  88548255.05246  21624372.219    21624374.477
        48.300          36.900
 131276885.524 6 102293674.91942  24981162.664    24981164.922
        38.100          14.800
 123904175.518 6  96548754.89743  23578177.609    23578180.219
        41.300          22.800
 16  2 24  0  9 30.0000000  0 11G08G30G21G05G16G09G27G26G07G18G20
 115851170.071 7  90273656.20245  22045739.898    22045746.199
        45.200          33.200
 123549485.247 7  96272372.67044  23510681.492    23510688.027
        43.200          27.900
 121144628.103 7  94398407.19944  23053053.602    23053055.156
        44.500          28.500
 131716521.497 6 102636270.36642  25064825.234    25064829.543
        38.100          15.600
 112460075.039 7  87631342.76446  21400454.484    21400455.863
        47.200          36.100
 127874059.198 6  99642033.59943  24333597.320    24333600.984
        40.200          21.100
 107884946.641 8  84066170.00146  20529799.266    20529803.867
        51.100          41.600
 124030505.589 7  96647111.90244  23602210.883    23602216.949
        42.400          27.100
 113588370.468 8  88510459.49446  21615141.906    21615144.750
        48.600          36.300
 131200099.637 6 102233842.37842  24966551.000    24966552.379
        39.100          17.400
 123910988.511 7  96554063.86143  23579475.125    23579476.680
        42.500          22.500
 16  2 24  0 10  0.0000000  0 11G08G30G21G05G16G09G27G26G07G18G20
 115764668.125 7  90206252.60745  22029279.453    22029285.109
        45.200          32.800
 123455409.302 7  96199066.79044  23492778.828    23492785.070
        43.900          28.200
 121176309.108 7  94423094.66244  23059082.719    23059083.219
        44.600          29.000
 131793776.125 5 102696468.43242  25079526.320    25079530.805
        34.600          16.300
 112535586.244 7  87690182.74646  21414823.242    21414825.207
        47.400          36.000
 127970940.900 6  99717525.57943  24352035.094    24352036.824
        39.600          21.700
 107856453.679 8  84043967.68046  20524377.242    20524381.961
        51.100          41.700
 124136818.556 6  96729953.28344  23622440.203    23622448.086
        41.000          25.600
 113540409.821 8  88473087.49346  21606015.172    21606018.309
        48.700          37.000
 131123569.245 6 102174208.34642  24951985.750    24951988.828
        39.100          16.300
 123918417.193 7  96559852.67843  23580888.578    23580890.191
        42.700          22.800
 16  2 24  0 10 30.0000000  0 11G08G30G21G05G16G09G27G26G07G18G20
 115678520.446 7  90139125.05945  22012884.422    22012891.074
        44.600          34.200
 123361656.072 7  96126012.38444  23474938.914    23474944.980
        44.200          27.800
 121208461.666 7  94448149.06144  23065200.367    23065200.867
        44.300          29.000
 131871423.002 5 102756972.28142  25094300.516    25094307.461
        35.200          16.300
 112611487.151 8  87749326.31446  21429267.859    21429269.063
        48.400          36.900
 128068075.764 6  99793214.85543  24370517.820    24370521.191
        39.100          20.900
 107828523.073 8  84022203.38247  20519062.641    20519067.066
        51.900          42.500
 124243312.120 6  96812935.28944  23642703.430    23642713.133
        40.300          24.600
 113492994.345 8  88436140.26946  21596992.523    21596995.602
        48.100          36.600
 131047297.281 6 102114775.86642  24937471.703    24937474.781
        38.800          15.600
 123926460.153 7  96566120.08544  23582418.453    23582420.594
        42.100          24.600
 16  2 24  0 11  0.0000000  0 10G08G30G21G16G09G27G26G07G18G20
 115592729.390 7  90072275.27145  21996560.438    21996566.035
        45.000          32.000
 123268228.629 7  96053211.85344  23457159.492    23457166.262
        44.500          27.500
 121241085.439 7  94473570.03944  23071407.242    23071410.262
        44.300          29.600
 112687776.465 8  87808772.54045  21443784.414    21443786.789
        48.400          35.900
 128165461.736 6  99869099.99243  24389048.516    24389054.172
        36.800          20.400
 107801157.445 8  84000879.99046  20513855.156    20513858.879
        51.400          41.500
 124349984.876 6  96896056.80543  23663002.820    23663011.758
        39.900          23.600
 113446126.034 8  88399619.38846  21588074.773    21588077.148
        49.400          37.700
 130971287.004 6 102055547.60542  24923007.820    24923010.430
        39.900          17.400
 123935117.846 7  96572866.49043  23584065.289    23584068.777
        42.300          23.900
 16  2 24  0 11 30.0000000  0 10G08G30G21G16G09G27G26G07G18G20
 115507296.667 7  90005704.45145  21980301.922    21980308.516
        45.300          34.100
 123175129.834 7  95980667.41744  23439444.414    23439450.305
        44.700          27.500
 121274180.161 7  94499358.10844  23077705.258    23077707.516
        45.600          28.700
 112764453.100 8  87868520.43345  21458375.922    21458377.008
        48.700          35.800
 128263095.329 6  99945177.89143  24407627.250    24407633.316
        37.000          20.900
 107774356.053 8  83979996.08146  20508754.953    20508758.910
        51.600          41.800
 124456835.321 6  96979316.62144  23683338.063    23683345.535
        40.200          26.300
 113399807.400 8  88363526.78246  21579259.844    21579262.219
        48.700          36.500
 130895539.428 6 101996523.44542  24908592.164    24908595.594
        40.200          16.300
 123944390.348 6  96580091.92743  23585828.883    23585832.371
        41.600          21.700
 16  2 24  0 12  0.0000000  0 10G08G30G21G16G09G27G26G07G18G20
 115422223.331 7  89939413.58045  21964112.289    21964119.117
        45.100          33.600
 123082361.217 7  95908380.24144  23421791.570    23421796.289
        45.000          27.900
 121307743.843 7  94525504.68654  23084093.328    23084094.121
        44.700          28.700
 112841514.199 8  87928567.95146  21473040.625    21473041.477
        49.200          36.100
 128360973.316 5 100021446.47343  24426250.203    24426258.730
        33.900          18.600
 107748117.747 8  83959550.54746  20503761.180    20503766.074
        51.500          41.600
 124563861.174 6  97062713.16544  23703702.867    23703711.453
        40.200          24.500
 113354038.690 8  88327862.75046  21570549.055    21570553.480
        48.400          37.000
 130820056.614 6 101937705.35942  24894229.859    24894232.117
        41.100          17.400
 123954276.068 7  96587795.02243  23587710.156    23587713.938
        42.300          22.900
 16  2 24  0 12 30.0000000  0 10G08G30G21G16G09G27G26G07G18G20
 115337511.801 7  89873404.58945  21947992.398    21947998.641
        46.700          33.700
 122989925.729 7  95836352.60144  23404201.250    23404206.027
        45.400          28.300
 121341775.682 7  94552022.65544  23090568.336    23090570.770
        45.200          28.900
 112918959.054 8  87988914.69145  21487777.906    21487779.461
        48.300          35.800
 128459092.991 5 100097903.52443  24444922.977    24444929.219
        34.800          18.600
 107722445.005 8  83939545.99647  20498875.102    20498880.348
        51.900          42.100
 124671061.179 6  97146245.52144  23724104.094    23724111.742
        40.700          25.300
 113308822.593 8  88292629.41046  21561947.359    21561949.148
        48.600          37.300
 130744842.547 6 101879096.76443  24879916.719    24879919.504
        40.200          19.000
 123964775.802 7  96595976.59243  23589709.398    23589711.891
        42.100          23.000
 16  2 24  0 13  0.0000000  0 10G08G30G21G16G09G27G26G07G18G20
 115253163.726 7  89807678.79945  21931942.484    21931947.379
        45.300          33.500
 122897825.805 7  95764586.50844  23386674.234    23386679.949
        43.600          27.400
 121376274.812 7  94578904.89544  23097134.828    23097136.090
        44.200          29.200
 112996783.869 8  88049556.97646  21502587.352    21502589.727
        48.300          36.100
 128557450.806 5 100174546.20443  24463639.898    24463646.316
        35.100          18.600
 107697336.522 8  83919980.68546  20494097.320    20494102.566
        50.000          41.300
 124778433.306 6  97229912.06144  23744535.063    23744543.883
        39.800          24.900
 113264160.419 8  88257827.67246  21553448.695    21553449.898
        49.800          37.700
 130669897.464 6 101820697.21542  24865655.305    24865657.738
        39.400          17.400
 123975888.632 7  96604636.06843  23591824.789    23591825.523
        42.700          22.500
 16  2 24  0 13 30.0000000  0 10G08G30G21G16G09G27G26G07G18G20
 115169180.591 7  89742237.32945  21915960.992    21915966.590
        45.600          34.200
 122806063.895 7  95693083.69944  23369212.773    23369218.664
        43.600          26.900
 121411241.818 7  94606152.58244  23103787.000    23103789.492
        44.000          28.000
 113074989.427 7  88110496.56945  21517469.930    21517470.840
        47.500          35.500
 128656043.729 5 100251372.01843  24482401.906    24482406.859
        34.600          19.900
 107672793.796 8  83900856.33146  20489427.758    20489432.359
        50.600          41.700
 124885975.942 6  97313711.56344  23765000.430    23765008.957
        40.800          25.300
 113220054.133 8  88223459.18146  21545054.430    21545057.039
        48.400          37.300
 130595226.346 6 101762511.91543  24851445.789    24851448.809
        40.000          18.300
 123987614.111 6  96613772.89743  23594053.859    23594056.352
        41.200          22.300
 16  2 24  0 14  0.0000000  0 10G08G30G21G16G09G27G26G07G18G20
 115085564.523 7  89677081.99345  21900049.070    21900055.078
        46.200          33.800
 122714642.715 7  95621846.51744  23351816.391    23351821.988
        44.000          27.200
 121446671.198 7  94633759.44144  23110528.750    23110532.531
        43.800          28.900
 113153572.285 7  88171730.01045  21532422.266    21532424.816
        46.500          35.500
 128754868.122 6 100328377.95943  24501208.813    24501213.297
        36.400          21.300
 107648817.018 8  83882172.97847  20484864.758    20484870.531
        51.000          42.300
 124993686.762 6  97397642.03444  23785497.211    23785505.270
        40.400          25.200
 113176505.501 7  88189525.43346  21536766.617    21536769.930
        47.900          37.300
 130520830.568 6 101704541.30743  24837289.898    24837291.688
        40.900          20.100
 123999951.994 6  96623386.84143  23596401.977    23596404.527
        41.800          22.000
 16  2 24  0 14 30.0000000  0 10G08G30G21G16G09G27G26G07G18G20
 115002317.506 7  89612214.43345  21884208.844    21884213.738
        46.600          33.700
 122623564.579 7  95550876.59544  23334484.039    23334490.926
        42.600          26.200
 121482565.299 7  94661728.69044  23117358.875    23117362.773
        43.700          27.900
 113232531.819 7  88233257.18445  21547448.734    21547449.527
        47.100          35.600
 128853921.656 5 100405562.54043  24520057.070    24520063.137
        35.400          20.400
 107625406.671 8  83863931.07047  20480410.703    20480415.305
        49.500          42.000
 125101564.317 6  97481702.45144  23806026.898    23806033.727
        40.600          25.800
 113133516.096 8  88156027.58046  21528587.273    21528589.063
        48.600          36.300
 130446712.738 6 101646787.46143  24823185.617    24823189.340
        39.900          19.600
 124012901.842 6  96633477.58643  23598866.188    23598868.855
        41.100          21.800
 16  2 24  0 15  0.0000000  0 11G08G30G21G13G16G09G27G26G07G18G20
 114919441.412 7  89547636.07245  21868436.734    21868442.098
        46.300          34.200
 122532832.392 7  95480176.30244  23317217.930    23317225.285
        42.700          25.600
 121518922.733 7  94690059.41444  23124276.289    23124280.832
        42.400          27.500
 131344038.54916 102345838.72052  24993893.500    24993899.391
        36.400          14.800
 113311865.572 7  88295075.76445  21562545.555    21562546.172
        47.900          35.500
 128953201.180 5 100482923.18543  24538949.492    24538955.207
        35.400          21.800
 107602563.004 8  83846130.60747  20476065.227    20476069.008
        51.200          42.200
 125209607.056 6  97565891.62744  23826586.469    23826592.477
        40.100          25.800
 113091086.776 7  88122965.87246  21520511.398    21520514.242
        47.800          36.300
 130372874.105 6 101589250.98343  24809133.766    24809137.020
        39.000          20.400
 124026463.226 6  96644044.92243  23601447.352    23601449.434
        41.100          21.500
 16  2 24  0 15 30.0000000  0 11G08G30G21G13G16G09G27G26G07G18G20
 114836936.687 7  89483346.69945  21852737.711    21852741.844
        46.400          35.000
 122442448.698 7  95409747.53644  23300019.516    23300025.348
        43.200          27.500
 121555741.232 7  94718749.30744  23131286.023    23131287.168
        44.200          28.900
 131253911.100 6 102275609.52442  24976742.742    24976748.340
        36.800          15.600
 113391572.002 7  88357184.60545  21577711.727    21577713.926
        47.600          34.600
 129052704.078 6 100560457.94843  24557884.094    24557890.043
        36.100          20.900
 107580286.959 8  83828772.57647  20471825.266    20471829.047
        51.100          43.000
 125317813.324 6  97650208.19444  23847176.859    23847183.688
        40.200          24.000
 113049220.350 8  88090342.94046  21512544.781    21512546.863
        48.600          36.800
 130299318.123 6 101531934.75843  24795135.391    24795139.289
        38.400          19.300
 124040635.858 6  96655088.55043  23604143.422    23604147.203
        41.100          21.700
 16  2 24  0 16  0.0000000  0 11G08G30G21G13G16G09G27G26G07G18G20
 114754806.139 7  89419348.83745  21837106.977    21837113.512
        46.400          34.300
 122352415.876 7  95339592.14044  23282885.617    23282892.152
        42.800          26.900
 121593020.718 7  94747798.36544  23138380.219    23138381.070
        44.000          28.400
 131164150.989 6 102205667.20642  24959664.289    24959667.543
        37.300          15.600
 113471649.022 7  88419582.11845  21592950.055    21592952.371
        46.800          34.900
 129152426.865 6 100638163.97843  24576860.969    24576866.977
        37.100          21.500
 107558578.791 8  83811857.19847  20467694.375    20467698.039
        51.900          42.100
 125426181.263 6  97734650.77944  23867798.703    23867805.590
        40.800          25.100
 113007918.445 8  88058160.02046  21504684.500    21504687.168
        48.100          37.000
 130226047.151 6 101474840.81743  24781192.609    24781196.742
        39.200          19.600
 124055419.077 7  96666607.96743  23606957.969    23606959.992
        42.000          22.000
 16  2 24  0 16 30.0000000  0 11G08G30G21G13G16G09G27G26G07G18G20
 114673051.818 7  89355644.13345  21821551.148    21821555.809
        45.800          34.200
 122262737.168 7  95269712.72944  23265820.609    23265827.027
        42.700          26.000
 121630760.045 7  94777205.88544  23145560.219    23145562.418
        43.700          28.700
 131074759.126 6                  24942652.555
        37.400
 113552096.129 7  88482268.12645  21608259.352    21608260.496
        47.900          34.500
 129252366.764 6 100716038.95243  24595879.594    24595885.367
        38.400          21.500
 107537439.435 8  83795385.16647  20463671.195    20463675.973
        51.000          42.300
 125534709.231 6  97819217.83743  23888451.305    23888458.367
        40.600          23.500
 112967182.680 8  88026418.14846  21496932.609    21496935.980
        48.100          36.100
 130153063.913 6 101417971.17643  24767303.391    24767307.582
        39.800          20.400
 124070812.820 7  96678603.01743  23609887.125    23609889.676
        42.200          21.800
 16  2 24  0 17  0.0000000  0 11G08G30G21G13G16G09G27G26G07G18G20
 114591674.847 7  89292233.34345  21806064.281    21806070.758
        46.300          35.000
 122173414.467 7  95200110.66044  23248823.172    23248828.418
        43.500          26.200
 121668957.150 7  94806969.68144  23152830.031    23152831.117
        42.900          27.500
 130985739.841 6                  24925712.641
        37.400
 113632911.066 8  88545240.89945  21623637.945    21623639.617
        48.900          34.800
 129352520.397 6 100794080.20943  24614938.641    24614944.590
        38.600          22.200
 107516868.528 8  83779356.13546  20459756.391    20459761.109
        50.000          41.800
 125643395.831 6  97903908.68343  23909133.875    23909141.113
        41.100          22.900
 112927014.155 8  87995118.18946  21489288.461    21489292.125
        48.800          37.200
 130080369.753 6 101361326.53743  24753471.094    24753474.582
        39.700          19.600
 124086816.108 7  96691073.02043  23612932.875    23612934.605
        42.300          22.600
 16  2 24  0 17 30.0000000  0 11G08G30G21G13G16G09G27G26G07G18G20
 114510676.474 7  89229117.55745  21790651.680    21790656.750
        47.800          35.000
 122084449.679 7  95130787.45844  23231892.977    23231898.926
        42.900          25.600
 121707611.215 7  94837090.21944  23160183.531    23160185.789
        43.700          27.600
 130897095.795 6                  24908844.625
        37.900
 113714091.091 8  88608498.12545  21639085.086    21639087.051
        48.100          34.700
 129452885.232 6 100872286.53543  24634037.313    24634043.262
        39.800          21.500
 107496864.969 8  83763768.91147  20455949.695    20455954.648
        50.000          42.600
 125752238.153 6  97988720.84343  23929845.570    23929853.570
        40.200          22.600
 112887414.275 8  87964261.41446  21481752.195    21481755.742
        48.400          36.800
 130007966.852 6 101304908.89343  24739693.813    24739697.008
        39.000          20.400
 124103427.860 7  96704017.11743  23616094.625    23616095.828
        42.800          22.900
 16  2 24  0 18  0.0000000  0 11G08G30G21G13G16G09G27G26G07G18G20
 114430058.801 7  89166298.49845  21775311.188    21775316.316
        46.900          34.800
 121995845.754 7  95061745.45244  23215031.875    23215037.824
        44.000          26.000
 121746719.948 6  94867564.65744  23167625.234    23167628.430
        41.900          26.100
 130808829.476 6                  24892048.008
        39.400
 113795634.480 8  88672038.43345  21654601.953    21654604.445
        48.400          34.700
 129553457.812 6 100950654.80043  24653176.586    24653180.719
        39.500          21.300
 107477430.454 8  83748625.34147  20452251.961    20452256.270
        50.700          42.200
 125861235.241 6  98073653.77443  23950585.469    23950593.645
        38.600          22.500
 112848384.422 8  87933848.71846  21474324.680    21474328.637
        48.700          37.200
 129935858.303 6 101248720.93643  24725970.094    24725973.992
        39.100          20.600
 124120647.703 6  96717434.98543  23619370.758    23619373.074
        41.200          22.500
 16  2 24  0 18 30.0000000  0 11G08G30G21G13G16G09G27G26G07G18G20
 114349824.122 7  89103777.91245  21760041.828    21760048.305
        46.500          34.700
 121907605.653 7  94992986.90244  23198241.766    23198246.426
        44.000          27.500
 121786283.316 7  94898393.23944  23175154.094    23175157.113
        42.100          26.900
 130720944.074 6                  24875321.664
        39.200
 113877540.292 8  88735861.07145  21670189.617    21670191.055
        49.300          35.700
 129654235.717 6 101029183.10143  24672353.875    24672358.418
        40.000          22.000
 107458565.214 8  83733925.29347  20448661.398    20448666.234
        50.600          42.100
 125970385.378 6  98158705.85843  23971358.375    23971364.910
        39.300          23.300
 112809926.805 8  87903881.83946  21467006.352    21467009.957
        48.500          36.400
 129864045.589 6 101192763.11843  24712304.672    24712308.805
        38.800          19.900
 124138475.826 6  96731326.88843  23622763.367    23622766.504
        41.400          22.800
 16  2 24  0 19  0.0000000  0 11G08G30G21G13G16G09G27G26G07G18G20
 114269974.003 7  89041557.04145  21744846.664    21744853.375
        46.400          34.700
 121819731.855 7  94924513.74844  23181519.086    23181525.152
        43.900          27.700
 121826300.673 7  94929575.82844  23182769.570    23182771.359
        42.000          27.000
 130633441.921 6 101792100.56152  24858670.883    24858674.254
        40.500          14.800
 113959806.910 8  88799965.00045  21685844.625    21685846.004
        48.600          34.900
 129755215.402 6 101107868.47043  24691569.117    24691575.008
        39.200          21.500
 107440268.896 8  83719668.24047  20445180.188    20445184.613
        51.300          42.400
 126079686.742 6  98243875.71243  23992156.719    23992164.074
        40.800          22.000
 112772043.004 8  87874362.02445  21459798.266    21459800.816
        49.400          35.700
 129792531.987 6 101137038.49543  24698697.156    24698700.176
        39.300          20.900
 124156911.357 6  96745692.01143  23626271.195    23626274.098
        41.600          21.500
 16  2 24  0 19 30.0000000  0 11G08G30G21G13G16G09G27G26G07G18G20
 114190510.338 7  88979637.27245  21729726.063    21729731.660
        47.300          35.600
 121732227.202 7  94856328.28144  23164868.250    23164873.438
        43.300          27.000
 121866771.055 6  94961111.73544  23190469.883    23190472.961
        41.600          26.600
 130546327.327 7 101724219.54042  24842094.242    24842097.789
        42.100          15.600
 114042432.367 8  88864348.39345  21701566.977    21701569.527
        48.900          34.400
 129856395.125 6 101186710.11243  24710822.727    24710828.969
        38.900          20.100
 107422542.927 8  83705855.81047  20441806.195    20441810.973
        49.900          42.500
 126189138.057 6  98329162.43543  24012985.953    24012991.785
        40.500          22.600
 112734735.093 8  87845291.09346  21452699.391    21452700.828
        49.200          36.600
 129721317.563 6 101081545.82943  24685146.586    24685149.313
        39.200          21.100
 124175953.806 7  96760530.08643  23629895.055    23629898.250
        42.200          22.300
 16  2 24  0 20  0.0000000  0 11G08G30G21G13G16G09G27G26G07G18G20
 114111433.729 7  88918018.92545  21714679.273    21714684.754
        46.800          35.400
 121645093.392 7  94788431.80744  23148287.297    23148292.895
        44.500          26.200
 121907690.036 6  94992996.48544  23198256.320    23198258.695
        41.400          27.100
 130459601.811 7 101656641.65742  24825590.836    24825594.441
        42.600          15.600
 114125414.409 8  88929009.67345  21717357.930    21717360.129
        48.300          34.700
 129957769.870 6 101265703.51443  24730113.719    24730119.668
        39.000          20.600
 107405385.677 8  83692486.20847  20438542.102    20438546.879
        49.900          43.000
 126298736.511 6  98414563.75643  24033841.836    24033848.254
        41.900          22.500
 112698003.225 8  87816668.92046  21445709.063    21445711.086
        49.700          36.100
 129650407.325 6 101026290.88843  24671652.469    24671656.426
        38.400          20.900
 124195601.671 7  96775840.00243  23633636.117    23633637.672
        42.200          22.000
 16  2 24  0 20 30.0000000  0 11G08G30G21G13G16G09G27G26G07G18G20
 114032746.884 7  88856704.46945  21699704.641    21699711.000
        46.500          35.000
 121558333.579 7  94720826.74444  23131776.820    23131782.711
        43.500          27.600
 121949059.303 6  95025232.36244  23206129.141    23206130.988
        41.500          26.900
 130373268.055 6 101589368.83742  24809161.766    24809166.074
        41.700          14.800
 114208751.975 7  88993948.13445  21733215.922    21733218.707
        47.500          33.800
 130059336.625 6 101344846.02243  24749442.641    24749447.477
        39.400          19.000
 107388799.001 8  83679561.41147  20435386.164    20435390.355
        50.000          42.600
 126408481.338 6  98500079.21643  24054725.938    24054732.180
        41.700          22.300
 112661850.025 8  87788497.71445  21438828.914    21438831.055
        48.200          35.900
 129579804.741 6 100971276.61943  24658216.922    24658219.824
        38.600          20.100
 124215854.201 6  96791620.84343  23637488.633    23637491.945
        40.700          22.600
 16  2 24  0 21  0.0000000  0 11G08G30G21G13G16G09G27G26G07G18G20
 113954450.917 7  88795694.24045  21684806.891    21684811.727
        47.300          35.200
 121471950.357 7  94653515.12444  23115339.305    23115344.727
        44.800          28.200
 121990876.692 7  95057817.40944  23214086.484    23214087.570
        42.400          26.700
 130287329.611 7 101522403.93842  24792808.008    24792812.082
        42.500          15.600
 114292442.923 7  89059161.80745  21749141.148    21749143.816
        46.400          34.000
 130161094.070 6 101424137.36643  24768805.586    24768811.301
        38.500          19.600
 107372782.931 8  83667081.29546  20432337.734    20432343.156
        51.000          41.600
 126518370.778 7  98585707.36343  24075636.055    24075642.531
        42.700          22.200
 112626276.915 8  87760778.62646  21432059.758    21432062.191
        48.900          36.900
 129509508.996 6 100916500.64743  24644838.781    24644842.738
        37.800          19.000
 124236712.168 6  96807873.67943  23641457.773    23641460.910
        40.500          22.800
 16  2 24  0 21 30.0000000  0 11G08G30G21G13G16G09G27G26G07G18G20
 113876548.435 7  88734990.86746  21669981.547    21669987.203
        46.700          36.000
 121385946.141 7  94586498.79644  23098974.672    23098978.570
        45.300          29.700
 122033142.322 6  95090752.40944  23222129.016    23222130.570
        41.500          27.000
 130201789.139 7 101455749.01042  24776529.883    24776534.367
        42.600          16.300
 114376485.646 7  89124649.58945  21765134.430    21765136.746
        47.100          33.900
 130263040.040 6 101503576.41243  24788203.383    24788211.090
        39.400          19.000
 107357338.427 8  83655047.04247  20429399.305    20429403.379
        51.100          42.500
 126628403.074 7  98671446.82643  24096576.164    24096580.414
        42.300          21.500
 112591284.833 8  87733512.15046  21425400.406    21425403.250
        48.400          36.600
 129439522.525 6 100861965.02043  24631521.750    24631524.887
        37.800          19.300
 124258173.371 6  96824596.24543  23645543.070    23645544.801
        41.600          22.200
 16  2 24  0 22  0.0000000  0 11G08G30G21G13G16G09G27G26G07G18G20
 113799040.954 7  88674595.88945  21655232.594    21655238.074
        46.900          35.000
 121300322.609 7  94519779.10944  23082681.477    23082685.727
        45.600          29.300
 122075850.554 6  95124031.28644  23230255.352    23230257.551
        41.000          26.500
 130116648.420 7 101389405.59242  24760328.359    24760332.434
        43.000          17.400
 114460877.714 7  89190409.69245  21781194.633    21781196.129
        47.100          33.800
 130365168.078 6 101583156.81542  24807639.023    24807644.504
        39.600          16.900
 107342463.515 8  83643456.52347  20426568.250    20426572.793
        52.200          42.500
 126738575.447 6  98757295.39543  24117539.281    24117545.523
        41.400          22.300
 112556874.726 8  87706699.12446  21418853.680    21418855.176
        48.900          36.700
 129369850.703 6 100807676.08443  24618264.867    24618265.836
        38.200          18.300
 124280236.798 6  96841787.95343  23649740.781    23649744.387
        40.000          21.700
 16  2 24  0 22 30.0000000  0 11G08G30G21G13G16G09G27G26G07G18G20
 113721929.293 7  88614508.78045  21640557.625    21640564.512
        46.400          34.700
 121215084.069 7  94453359.45544  23066458.859    23066465.277
        43.900          27.500
 122119005.090 6  95157658.10744  23238466.531    23238470.605
        40.000          25.200
 130031912.653 7 101323377.90142  24744203.953    24744207.852
        43.300          16.300
 114545618.533 7  89256441.40545  21797319.641    21797321.723
        46.700          33.700
 130467477.687 6 101662878.51642  24827108.828    24827112.844
        38.400          16.900
 107328159.170 8  83632309.97047  20423847.891    20423850.793
        50.100          42.800
 126848887.865 6  98843252.94243  24138531.133    24138537.785
        39.600          21.300
 112523049.833 8  87680342.20146  21412417.227    21412419.016
        48.300          37.300
 129300491.814 6 100753629.58243  24605064.656    24605068.262
        38.000          19.300
 124302902.447 6  96859448.57343  23654054.305    23654058.262
        40.800          21.700
 16  2 24  0 23  0.0000000  0 11G08G30G21G13G16G09G27G26G07G18G20
 113645215.367 7  88554731.85846  21625960.867    21625965.762
        47.600          36.100
 121130231.205 7  94387240.33144  23050311.852    23050317.742
        45.200          28.500
 122162603.365 6  95191631.53044  23246764.164    23246766.598
        40.600          27.000
 129947582.344 7 101257666.02943  24728155.813    24728159.184
        43.900          18.600
 114630704.812 7  89322742.31945  21813512.750    21813513.426
        47.500          34.600
 130569964.776 6 101742738.74742  24846610.797    24846615.281
        37.700          16.900
 107314424.842 8  83621607.55847  20421233.734    20421237.223
        51.300          42.400
 126959337.310 6  98929317.49543  24159549.289    24159555.355
        40.800          21.700
 112489809.465 8  87654440.62546  21406090.180    21406093.375
        48.000          37.100
 129231452.145 5 100699832.93042  24591925.578    24591930.414
        35.000          17.800
 124326168.459 6  96877576.90943  23658482.930    23658486.652
        40.900          22.500
 16  2 24  0 23 30.0000000  0 11G08G30G21G13G16G09G27G26G07G18G20
 113568901.517 7  88495266.79045  21611437.094    21611443.688
        47.600          35.200
 121045767.700 7  94321424.68044  23034238.195    23034245.141
        43.900          27.900
 122206641.422 6  95225946.57444  23255144.039    23255147.586
        41.500          26.800
 129863661.582 7 101192273.36543  24712185.781    24712189.621
        43.700          18.600
 114716136.261 8  89389312.23945  21829769.664    21829771.043
        48.400          34.800
 130672626.880 6 101822735.28742  24866145.313    24866151.145
        36.900          15.600
 107301263.294 8  83611352.34747  20418728.227    20418732.418
        51.600          42.600
 127069922.891 6  99015488.11943  24180592.328    24180599.098
        39.900          20.600
 112457156.166 8  87628996.51046  21399876.383    21399879.402
        48.000          36.700
 129162732.420 5 100646285.43442  24578847.727    24578852.738
        35.000          17.800
 124350035.391 6  96896173.43243  23663025.508    23663029.406
        41.300          22.200
 16  2 24  0 24  0.0000000  0 11G08G30G21G13G16G09G27G26G07G18G20
 113492988.837 7  88436114.24445  21596992.461    21596998.117
        47.500          35.800
 120961696.144 7  94255914.42944  23018241.898    23018246.266
        45.700          28.700
 122251121.207 7  95260606.51444  23263609.219    23263611.125
        42.900          27.400
 129780153.339 7 101127202.02742  24696294.180    24696298.195
        43.100          17.800
 114801910.128 7  89456148.66445  21846091.969    21846093.348
        47.800          34.800
 130775461.545 6 101902866.36242  24885714.578    24885720.293
        37.200          16.300
 107288672.740 8  83601541.80147  20416330.688    20416336.227
        51.200          42.600
 127180642.970 6  99101763.51243  24201662.469    24201668.945
        39.500          22.000
 112425091.855 8  87604011.35646  21393776.102    21393777.832
        48.400          37.700
 129094333.720 6 100592987.73843  24565832.883    24565836.781
        36.300          18.600
 124374503.623 6  96915239.18143  23667681.711    23667686.137
        40.400          20.900
 16  2 24  0 24 30.0000000  0 11G08G30G21G13G16G09G27G26G07G18G20
 113417477.783 7  88377274.15845  21582623.953    21582628.672
        47.900          35.400
 120878018.268 7  94190710.94945  23002319.086    23002323.043
        45.500          30.100
 122296039.768 7  95295608.32044  23272156.977    23272158.531
        43.000          28.200
 129697060.258 7 101062454.61143  24680482.922    24680486.176
        43.800          18.300
 114888025.362 8  89523251.55845  21862477.977    21862480.820
        48.000          34.300
 130878464.262 6 101983128.31042  24905315.398    24905321.289
        36.200          14.800
 107276651.466 8  83592174.05947  20414044.219    20414048.703
        51.600          43.100
 127291495.221 6  99188141.96943  24222757.930    24222763.996
        39.400          22.500
 112393616.933 8  87579485.43746  21387785.070    21387788.441
        48.400          37.600
 129026258.859 5 100539942.52643  24552879.320    24552883.453
        35.800          20.400
 124399569.498 6  96934770.20143  23672452.539    23672455.969
        41.200          21.300
 16  2 24  0 25  0.0000000  0 11G08G30G21G13G16G09G27G26G07G18G20
 113342372.303 8  88318750.71046  21568330.633    21568336.641
        49.000          36.200
 120794736.792 7  94125816.32544  22986469.766    22986475.715
        45.600          29.100
 122341394.881 7  95330949.80844  23280787.688    23280789.945
        43.400          28.600
 129614382.669 7 100998030.12143  24664749.578    24664753.945
        43.100          20.600
 114974479.222 8  89590618.14545  21878929.789    21878932.516
        48.000          34.400
 130981632.528 5 102063519.03342  24924948.391    24924953.813
        35.700          15.600
 107265202.333 8  83583252.65047  20411865.094    20411869.637
        52.100          42.400
 127402478.042 6  99274622.16543  24243876.664    24243882.848
        39.800          22.600
 112362732.703 8  87555419.80346  21381908.750    21381911.125
        48.700          37.700
 128958511.731 6 100487153.18143  24539986.680    24539990.402
        37.000          19.600
 124425234.697 7  96954769.04543  23677335.391    23677341.281
        42.100          22.600
 16  2 24  0 25 30.0000000  0 11G08G30G21G13G16G09G27G26G07G18G20
 113267672.598 7  88260543.34845  21554115.742    21554120.520
        47.600          35.200
 120711854.234 7  94061232.49245  22970699.641    22970703.070
        46.000          30.400
 122387186.844 7  95366632.05144  23289501.453    23289503.711
        42.500          28.900
 129532126.864 7 100933934.77043  24649097.070    24649101.496
        42.300          19.600
 115061270.668 7  89658247.71745  21895445.688    21895448.707
        46.500          33.600
 131084963.729 5 102144036.69842  24944611.680    24944617.043
        35.600          14.800
 107254323.561 8  83574775.29946  20409796.000    20409800.543
        50.500          41.400
 127513589.855 6  99361202.82143  24265020.586    24265026.418
        39.800          22.600
 112332441.010 7  87531815.89846  21376143.516    21376147.473
        47.300          36.800
 128891091.725 6 100434618.06043  24527159.477    24527160.973
        37.500          20.100
 124451495.500 7  96975231.29743  23682334.375    23682337.805
        42.400          22.300
 16  2 24  0 26  0.0000000  0 11G08G30G21G13G16G09G27G26G07G18G20
 113193380.965 8  88202653.81345  21539978.859    21539983.930
        48.900          35.700
 120629374.081 7  93996962.31644  22955003.461    22955007.301
        46.100          29.300
 122433414.243 7  95402653.57844  23298298.594    23298299.973
        43.800          28.000
 129450294.997 7 100870169.72143  24633524.445    24633529.047
        42.800          19.300
 115148397.904 7  89726138.89545  21912024.805    21912028.234
        46.800          32.800
 131188455.686 5 102224679.80542  24964303.891    24964311.012
        34.200          16.300
 107244017.838 8  83566745.02547  20407835.414    20407839.547
        50.800          42.100
 127624829.492 6  99447883.08043  24286188.852    24286195.270
        39.400          22.000
 112302743.687 8  87508675.12846  21370493.656    21370495.855
        48.900          37.400
 128824002.208 6 100382339.94643  24514393.898    24514395.160
        37.200          20.400
 124478352.704 7  96996158.12643  23687446.344    23687449.539
        42.000          21.500
 16  2 24  0 26 30.0000000  0 11G08G30G21G13G16G09G27G26G07G18G20
 113119498.110 8  88145082.88045  21525918.227    21525923.766
        48.500          35.200
 120547297.322 7  93933006.41044  22939383.797    22939389.043
        45.000          29.500
 122480074.603 7  95439012.40644  23307177.805    23307178.539
        44.200          28.100
 129368889.029 7 100806736.75443  24618033.945    24618037.727
        42.800          20.900
 115235858.483 7  89794289.71545  21928670.102    21928671.129
        47.800          34.000
 131292104.014 5 102305444.69242  24984028.398    24984034.523
        33.800          15.600
 107234283.187 8  83559159.92646  20405982.219    20405986.176
        51.700          41.900
 127736194.121 6  99534660.66743  24307380.500    24307387.211
        39.300          22.600
 112273640.885 8  87485997.61946  21364955.453    21364957.770
        48.000          37.400
 128757247.481 6 100330323.90643  24501688.367    24501690.859
        37.400          19.000
 124505805.981 6  97017550.27543  23692670.445    23692674.695
        41.100          22.300
 16  2 24  0 27  0.0000000  0 10G08G30G21G13G16G27G26G07G18G20
 113046026.413 8  88087832.31646  21511937.648    21511942.895
        48.900          36.200
 120465627.471 7  93869367.60745  22923841.320    22923847.328
        45.200          30.000
 122527166.805 7  95475707.72044  23316140.078    23316140.051
        44.200          28.500
 129287911.405 7 100743637.16343  24602625.539    24602628.031
        43.200          21.300
 115323651.207 8  89862699.22245  21945376.602    21945377.805
        49.000          33.900
 107225119.383 8  83552019.23947  20404238.367    20404242.793
        51.800          42.100
 127847683.113 6  99621535.19743  24328594.289    24328602.934
        39.400          23.400
 112245134.774 8  87463785.06846  21359529.703    21359533.250
        48.800          37.100
 128690826.025 5 100278566.06543  24489048.391    24489052.230
        35.500          19.600
 124533853.987 6  97039406.01443  23698008.047    23698011.359
        41.700          22.200
 16  2 24  0 27 30.0000000  0 10G08G30G21G13G16G27G26G07G18G20
 112972967.134 8  88030903.07746  21498036.094    21498040.109
        49.500          36.600
 120384366.440 7  93806047.35745  22908379.828    22908384.313
        46.000          30.100
 122574689.865 7  95512738.74544  23325183.586    23325183.031
        44.900          28.900
 129207365.542 7 100680874.24343  24587296.664    24587300.914
        43.400          20.600
 115411774.854 8  89931367.04245  21962147.063    21962147.504
        48.700          33.400
 107216526.968 8  83545323.98046  20402602.742    20402608.164
        51.000          41.100
 127959294.358 6  99708505.03143  24349833.516    24349841.281
        39.300          21.800
 112217225.797 8  87442037.83246  21354218.438    21354222.512
        48.000          36.900
 128624743.190 6 100227072.81443  24476474.672    24476477.164
        37.300          20.100
 124562494.933 6  97061723.85943  23703457.594    23703462.137
        40.500          21.100
 16  2 24  0 28  0.0000000  0 10G08G30G21G13G16G27G26G07G18G20
 112900321.304 8  87974296.19645  21484210.602    21484216.785
        49.500          35.700
 120303515.879 7  93743046.94845  22892993.773    22892998.141
        45.600          30.300
 122622640.516 7  95550102.80644  23334307.188    23334307.219
        44.100          27.900
 129127252.878 7 100618448.77943  24572051.234    24572055.660
        42.700          21.100
 115500225.226 8  90000289.20745  21978978.484    21978978.984
        48.900          34.000
 107208503.937 8  83539072.00347  20401075.711    20401081.250
        50.900          42.300
 128071024.887 6  99795567.81543  24371096.461    24371103.230
        38.900          21.700
 112189914.260 8  87420756.13446  21349022.055    21349024.898
        49.000          37.400
 128559000.430 6 100175845.33043  24463962.422    24463965.441
        37.100          20.100
 124591727.072 6  97084502.53943  23709019.227    23709024.063
        41.200          22.300
 16  2 24  0 28 30.0000000  0 10G08G30G21G13G16G27G26G07G18G20
 112828090.710 8  87918012.65845  21470466.055    21470470.598
        49.400          35.900
 120223079.644 7  93680369.41245  22877686.125    22877692.191
        46.300          31.400
 122671019.280 7  95587800.43644  23343510.945    23343514.375
        42.200          26.600
 129047576.866 7 100556363.36643  24556889.188    24556894.023
        42.800          21.700
 115589002.715 7  90069466.54045  21995870.727    21995872.633
        47.300          32.700
 107201052.763 8  83533265.95247  20399658.805    20399663.465
        51.700          42.100
 128182874.854 6  99882723.77543  24392379.531    24392386.945
        36.700          20.900
 112163203.156 8  87399942.29646  21343939.352    21343942.195
        49.300          37.500
 128493600.891 6 100124885.74443  24451515.672    24451520.566
        36.900          19.600
 124621549.395 6  97107740.44443  23714695.234    23714698.840
        41.700          21.300
 16  2 24  0 29  0.0000000  0 10G08G30G21G13G16G27G26G07G18G20
 112756278.006 8  87862054.78046  21456800.555    21456805.215
        49.200          36.300
 120143060.294 7  93618016.77045  22862460.492    22862465.504
        45.600          30.900
 122719824.865 7  95625830.59244  23352799.953    23352800.922
        43.800          26.500
 128968341.564 7 100494621.49643  24541811.875    24541816.125
        42.400          21.500
 115678105.832 8  90138897.56645  22012826.711    22012828.031
        48.000          33.300
 107194173.291 8  83527905.39447  20398348.953    20398353.906
        51.700          42.200
 128294842.267 5  99969971.13643  24413684.141    24413694.020
        35.000          19.900
 112137093.624 8  87379597.20746  21338970.461    21338973.539
        49.600          36.900
 128428544.225 6 100074192.31043  24439135.195    24439139.855
        36.900          19.900
 124651961.858 6  97131438.33143  23720483.328    23720485.703
        41.700          21.300
 16  2 24  0 29 30.0000000  0 10G08G30G21G13G16G27G26G07G18G20
 112684884.025 8  87806423.20045  21443213.195    21443219.203
        48.300          35.500
 120063459.733 7  93555990.42344  22847311.586    22847317.887
        44.900          29.900
 122769054.850 7  95664191.28144  23362169.016    23362169.750
        43.900          27.900
 128889548.785 6 100433224.58043  24526818.492    24526823.035
        41.800          21.300
 115767531.834 7  90208580.20545  22029843.258    22029845.633
        47.200          32.100
 107187864.542 8  83522989.51947  20397148.656    20397153.727
        51.000          42.000
 128406925.030 5 100057308.37743  24435013.469    24435022.816
        35.800          20.900
 112111586.381 8  87359721.45846  21334117.586    21334119.492
        49.500          37.500
 128363834.886 6 100023770.00443  24426822.398    24426826.590
        39.200          20.100
 124682963.115 7  97155595.01343  23726382.117    23726385.488
        42.500          22.200
 16  2 24  0 30  0.0000000  0 10G08G30G21G13G16G27G26G07G18G20
 112613910.239 8  87751118.93546  21429707.000    21429713.594
        48.300          36.500
 119984280.641 7  93494292.49445  22832245.719    22832250.496
        46.100          31.400
 122818708.573 7  95702882.29944  23371617.461    23371619.426
        44.100          27.900
 128811201.535 7 100372174.93743  24511908.109    24511913.180
        42.100          21.800
 115857278.962 8  90278513.02245  22046922.867    22046923.484
        48.500          32.800
 107182126.511 8  83518518.26746  20396056.781    20396061.031
        51.200          41.600
 128519121.545 6 100144734.30343  24456365.141    24456372.672
        36.500          21.800
 112086682.765 8  87340316.04646  21329377.242    21329380.789
        49.300          36.800
 128299475.002 6  99973620.46243  24414577.586    24414578.320
        41.600          21.500
 124714551.217 6  97180208.67643  23732392.055    23732396.422
        41.000          19.300
 16  2 24  0 30 30.0000000  0 10G08G30G21G13G16G27G26G07G18G20
 112543358.113 8  87696143.07745  21416282.133    21416288.141
        48.800          35.400
 119905525.417 7  93432924.84945  22817258.594    22817262.668
        46.400          31.700
 122868784.030 7  95741902.09144  23381147.813    23381148.840
        44.100          28.400
 128733302.628 7 100311474.90743  24497085.672    24497089.395
        42.800          22.200
 115947345.666 7  90348694.92745  22064060.164    22064062.715
        46.800          32.200
 107176959.776 8  83514492.50646  20395072.781    20395078.027
        51.000          41.600
 128631430.193 6 100232247.57243  24477739.008    24477745.191
        36.800          22.900
 112062383.554 8  87321381.60646  21324753.734    21324755.875
        49.100          36.400
 128235465.769 6  99923743.89543  24402396.156    24402397.184
        40.900          21.100
 124746727.307 7  97205281.11043  23738516.297    23738519.668
        42.200          21.800
 16  2 24  0 31  0.0000000  0 10G08G30G21G13G16G27G26G07G18G20
 112473229.969 8  87641497.56846  21402937.617    21402943.098
        49.100          36.100
 119827196.801 7  93371889.57845  22802353.102    22802357.762
        46.200          31.500
 122919281.087 7  95781250.38944  23390755.711    23390757.500
        43.600          29.300
 128655854.224 6 100251125.61943  24482346.969    24482351.336
        41.800          20.900
 116037730.225 7  90419124.40445  22081260.070    22081262.738
        46.700          33.000
 107172364.576 8  83510912.28347  20394198.117    20394202.309
        51.600          42.000
 128743849.899 6 100319847.47043  24499131.461    24499137.176
        37.000          21.700
 112038690.450 8  87302919.46446  21320244.383    21320247.754
        48.600          36.600
 128171809.023 6  99874141.60543  24390281.055    24390283.605
        40.900          20.100
 124779491.080 6  97230812.57643  23744749.930    23744753.184
        41.800          20.400
 16  2 24  0 31 30.0000000  0 10G08G30G21G13G16G27G26G07G18G20
 112403526.127 8  87587182.91946  21389674.164    21389679.117
        49.200          36.800
 119749295.950 7  93311187.65845  22787528.586    22787533.480
        45.800          30.700
 122970195.439 7  95820923.74144  23400444.313    23400446.570
        44.800          28.800
 128578857.479 6 100191127.94443  24467693.664    24467699.379
        41.000          21.300
 116128429.756 7  90489799.40445  22098520.539    22098522.563
        47.000          31.900
 107168337.382 8  83507773.99047  20393433.383    20393436.871
        52.200          42.600
 128856377.160 6 100407531.07943  24520542.648    24520550.648
        36.900          22.200
 112015603.001 8  87284929.21446  21315850.523    21315853.836
        49.000          36.300
 128108505.532 6  99824814.28043  24378231.906    24378236.215
        40.000          19.900
 124812837.142 6  97256797.39243  23751094.555    23751097.809
        41.100          20.600
 16  2 24  0 32  0.0000000  0 10G08G30G21G13G16G27G26G07G18G20
 112334249.557 8  87533201.48046  21376491.031    21376495.984
        50.600          37.300
 119671826.739 7  93250822.15145  22772786.078    22772792.496
        45.400          30.600
 123021527.984 7  95860923.05944  23410214.445    23410214.828
        44.600          29.800
 128502316.841 6 100131485.56043  24453130.914    24453135.340
        41.100          21.500
 116219443.587 7  90560719.35245  22115839.688    22115842.414
        46.800          31.500
 107164880.845 8  83505080.43446  20392774.438    20392778.863
        51.000          41.400
 128969011.798 6 100495298.32243  24541977.141    24541983.324
        37.900          22.300
 111993123.925 8  87267413.05646  21311572.656    21311576.203
        48.700          36.300
 128045558.480 7  99775764.15643  24366257.430    24366257.988
        42.200          21.300
 124846765.339 6  97283235.35743  23757550.672    23757554.629
        41.800          21.100
 16  2 24  0 32 30.0000000  0 10G08G30G21G13G16G27G26G07G18G20
 112265400.732 8  87479553.15646  21363388.836    21363394.199
        49.500          37.100
 119594790.760 7  93190794.15245  22758127.047    22758132.293
        45.500          31.200
 123073275.469 7  95901245.40344  23420059.953    23420062.211
        44.200          28.200
 128426234.564 6 100072200.31243  24438652.047    24438657.117
        41.300          21.700
 116310769.096 7  90631882.08445  22133217.094    22133220.992
        45.400          31.700
 107161995.278 8  83502832.32746  20392225.094    20392229.520
        51.700          41.500
 129081751.764 6 100583147.76643  24563432.156    24563437.520
        38.400          22.600
 111971253.712 8  87250371.32346  21307412.109    21307414.895
        49.000          36.600
 127982973.494 7  99726997.45143  24354346.617    24354348.523
        42.100          20.100
 124881273.252 6  97310124.22843  23764118.234    23764121.020
        41.500          19.600
 16  2 24  0 33  0.0000000  0 10G08G30G21G13G16G27G26G07G18G20
 112196980.951 8  87426239.27546  21350368.633    21350374.230
        49.000          36.600
 119518190.087 7  93131105.34145  22743551.734    22743555.516
        46.600          31.200
 123125437.070 7  95941890.48244  23429988.203    23429988.762
        44.600          28.700
 128350613.357 6 100013274.62243  24424262.070    24424266.320
        40.600          20.900
 116402403.996 7  90703285.79545  22150654.930    22150658.359
        45.600          32.300
 107159678.078 8  83501026.74747  20391784.703    20391788.660
        50.600          42.300
 129194594.895 6 100671077.66843  24584905.141    24584910.738
        39.900          22.500
 111949992.596 8  87233804.22646  21303366.250    21303368.625
        48.900          36.700
 127920748.809 6  99678511.15343  24342504.438    24342506.871
        41.300          19.300
 124916361.898 7  97337466.13043  23770795.711    23770798.262
        42.000          19.600
 16  2 24  0 33 30.0000000  0 10G08G30G21G13G16G27G26G07G18G20
 112128990.910 8  87373259.76746  21337431.594    21337436.313
        49.700          37.300
 119442027.665 7  93071758.03345  22729058.875    22729062.305
        47.100          30.400
 123178011.284 7  95982857.12744  23439992.148    23439993.996
        44.100          28.300
 128275457.250 6  99954712.17743  24409958.922    24409964.578
        40.100          20.900
 116494347.195 7  90774929.73545  22168152.117    22168154.668
        46.300          31.900
 107157929.728 8  83499664.14547  20391451.609    20391456.445
        51.800          42.700
 129307539.651 6 100759086.66743  24606396.852    24606403.094
        40.000          23.000
 111929342.121 8  87217712.91646  21299436.992    21299439.426
        48.800          37.400
 127858887.149 6  99630307.38543  24330730.820    24330734.367
        40.700          19.000
 124952028.960 6  97365258.43043  23777583.258    23777585.867
        41.700          19.600
 16  2 24  0 34  0.0000000  0 10G08G30G21G13G16G27G26G07G18G20
 112061434.818 8  87320618.89846  21324576.047    21324580.531
        50.500          37.600
 119366306.502 7  93012754.55045  22714648.367    22714653.789
        46.300          31.600
 123230997.690 7  96024145.10644  23450074.336    23450077.238
        44.000          27.700
 128200766.519 6  99896511.49443  24395747.086    24395751.453
        39.600          20.600
 116586597.885 7  90846813.41645  22185706.773    22185708.914
        45.200          31.900
 107156751.688 8  83498746.22047  20391228.148    20391232.574
        51.300          42.600
 129420584.993 6 100847173.96943  24627907.609    24627915.258
        40.200          22.200
 111909303.851 8  87202098.70546  21295623.742    21295625.355
        49.600          37.100
 127797392.004 6  99582389.32343  24319029.883    24319031.672
        40.900          19.900
 124988274.055 6  97393501.14443  23784479.359    23784483.199
        41.100          21.500
 16  2 24  0 34 30.0000000  0 10G08G30G21G13G16G27G26G07G18G20
 111994312.208 8  87268315.74346  21311802.211    21311806.930
        49.900          37.100
 119291028.090 7  92954096.07545  22700322.781    22700328.730
        45.900          31.300
 123284393.017 7  96065751.57944  23460236.594    23460238.207
        45.300          29.700
 128126545.388 6  99838677.08143  24381621.938    24381627.594
        39.900          20.600
 116679152.772 7  90918934.10245  22203318.195    22203321.332
        45.800          31.200
 107156142.198 8  83498271.27747  20391110.891    20391116.254
        51.400          42.100
 129533728.916 6 100935338.21543  24649436.227    24649445.281
        39.400          22.200
 111889877.973 8  87186961.63946  21291926.539    21291928.855
        49.800          36.900
 127736263.251 6  99534756.45743  24307397.125    24307397.918
        41.400          19.600
 125025095.248 6  97422192.89143  23791485.281    23791489.883
        41.100          20.600
 16  2 24  0 35  0.0000000  0 10G08G30G21G13G16G27G26G07G18G20
 111927625.321 8  87216352.04746  21299111.359    21299117.543
        49.400          37.100
 119216195.881 7  92895785.28245  22686083.000    22686088.539
        45.200          31.500
 123338197.266 7  96107676.99344  23470476.195    23470476.695
        44.600          28.300
 128052796.461 6  99781210.73543  24367589.172    24367592.719
        40.200          20.100
 116772010.976 7  90991290.95045  22220990.391    22220991.828
        45.700          32.300
 107156102.325 8  83498240.36147  20391104.992    20391109.066
        52.300          42.000
 129646970.270 6 101023578.29643  24670985.070    24670994.242
        39.900          22.000
 111871066.564 8  87172303.38546  21288346.398    21288349.242
        49.000          36.300
 127675505.059 6  99487412.32343  24295834.273    24295837.176
        40.100          20.400
 125062492.037 7  97451333.15643  23798603.586    23798606.664
        42.000          20.400
 16  2 24  0 35 30.0000000  0 10G08G30G21G13G16G27G26G07G18G20
 111861375.392 8  87164728.85846  21286504.078    21286510.379
        48.700          36.700
 119141811.434 7  92837823.40645  22671927.586    22671933.301
        44.900          30.500
 123392409.089 7  96149920.17844  23480790.563    23480792.176
        43.700          27.700
 127979521.481 6  99724113.53343  24353645.047    24353649.180
        40.800          20.600
 116865170.403 7  91063882.70145  22238718.047    22238720.246
        45.600          31.800
 107156629.959 8  83498651.23047  20391204.906    20391210.035
        51.700          43.000
 129760306.785 6 101111892.61043  24692553.711    24692562.004
        40.500          22.500
 111852869.629 8  87158123.93146  21284884.531    21284886.379
        50.100          37.200
 127615119.204 6  99440358.46943  24284345.219    24284346.070
        40.400          20.400
 125100462.154 6  97480920.15543  23805828.063    23805833.250
        41.800          20.900
 16  2 24  0 36  0.0000000  0 10G08G30G21G13G16G27G26G07G18G20
 111795563.293 8  87113446.54446  21273980.281    21273986.816
        48.500          36.700
 119067877.523 7  92780212.63344  22657858.516    22657864.055
        45.000          29.300
 123447025.671 7  96192478.75644  23491182.609    23491185.453
        43.500          26.500
 127906723.173 6  99667387.60243  24339793.883    24339795.613
        40.600          21.300
 116958629.056 7  91136707.52145  22256503.461    22256504.254
        47.600          33.000
 107157725.996 8  83499505.15647  20391413.977    20391418.520
        52.100          42.500
 129873737.159 6 101200280.10543  24714139.555    24714146.617
        39.900          22.600
 111835288.623 8  87144424.44546  21281539.219    21281541.301
        49.900          36.900
 127555107.707 6  99393596.35243  24272925.281    24272926.484
        41.300          19.000
 125139004.565 6  97510953.13843  23813163.359    23813167.434
        41.700          21.100
 16  2 24  0 36 30.0000000  0 10G08G30G21G13G16G27G26G07G18G20
 111730191.364 8  87062507.43546  21261540.813    21261546.469
        49.600          37.100
 118994396.409 7  92722954.65045  22643874.367    22643880.141
        43.800          30.200
 123502045.817 7  96235351.67644  23501652.031    23501656.223
        42.700          26.100
 127834404.131 6  99611034.91143  24326028.641    24326034.121
        39.300          19.900
 117052384.852 7  91209763.83745  22274344.047    22274345.191
        46.000          32.300
 107159390.222 8  83500801.88547  20391729.328    20391735.102
        50.300          42.600
 129987259.463 6 101288739.15443  24735741.914    24735749.328
        39.400          22.300
 111818324.075 8  87131205.31346  21278311.023    21278312.813
        49.300          37.000
 127495472.695 6  99347127.60243  24261576.484    24261578.039
        41.400          19.900
 125178118.096 6  97541431.16143  23820604.281    23820609.645
        40.900          19.600
 16  2 24  0 37  0.0000000  0 10G08G30G21G13G16G27G26G07G18G20
 111665260.510 8  87011912.00146  21249186.508    21249190.934
        50.200          37.800
 118921369.974 7  92666050.96644  22629979.906    22629983.219
        45.500          29.900
 123557467.447 7  96278537.60744  23512198.781    23512202.094
        43.500          26.300
 127762567.359 6  99555058.40443  24312359.492    24312363.859
        38.800          20.600
 117146436.620 7  91283050.81945  22292241.477    22292242.738
        46.900          31.600
 107161621.542 8  83502540.56947  20392153.914    20392159.570
        51.100          42.300
 130100871.634 6 101377268.21243  24757361.563    24757368.977
        39.300          20.600
 111801976.307 8  87118466.78346  21275200.656    21275202.152
        49.700          37.700
 127436215.776 6  99300953.56543  24250299.367    24250301.391
        40.600          19.300
 125217800.004 6  97572351.88043  23828155.195    23828161.086
        40.200          19.600
 16  2 24  0 37 30.0000000  0 10G08G30G21G13G16G27G26G07G18G20
 111600772.085 8  86961661.08346  21236915.094    21236919.520
        49.900          37.800
 118848801.286 7  92609503.95344  22616168.984    22616174.348
        45.100          29.500
 123613288.991 7  96322034.68444  23522821.023    23522823.809
        44.100          26.500
 127691214.898 6  99499458.93343  24298781.758    24298785.480
        39.500          20.900
 117240782.892 7  91356567.44845  22310193.992    22310196.543
        45.700          32.300
 107164420.685 8  83504721.88747  20392687.000    20392691.250
        50.800          42.200
 130214572.806 6 101465866.66343  24778997.875    24779005.348
        40.000          21.100
 111786247.086 8  87106210.25546  21272207.141    21272209.164
        49.700          37.500
 127377338.988 6  99255075.62343  24239096.461    24239096.961
        40.600          18.600
 125258050.401 6  97603715.71843  23835817.242    23835820.262
        41.100          20.600
 16  2 24  0 38  0.0000000  0 10G08G30G21G13G16G27G26G07G18G20
 111536727.016 8  86911755.75646  21224726.633    21224731.996
        49.600          37.800
 118776691.326 7  92553314.38745  22602448.398    22602452.063
        45.000          30.400
 123669508.670 7  96365842.22644  23533519.367    23533521.566
        43.600          25.500
 127620349.205 6  99444239.14343  24285294.711    24285300.484
        38.800          20.600
 117335420.225 7  91430310.81545  22328203.531    22328205.789
        46.400          31.400
 107167784.500 8  83507342.68547  20393328.094    20393332.168
        51.500          42.800
 130328359.950 6 101554532.12543  24800651.648    24800657.715
        38.600          19.900
 111771135.786 8  87094435.21446  21269331.898    21269333.629
        49.000          38.300
 127318843.503 6  99209494.60343  24227964.977    24227966.648
        39.100          18.600
 125298866.518 6  97635520.46343  23843583.320    23843587.805
        40.000          20.400
 16  2 24  0 38 30.0000000  0 10G08G30G21G13G16G27G26G07G18G20
 111473128.524 8  86862198.58746  21212624.273    21212628.699
        49.700          36.500
 118705044.258 7  92497485.55245  22588815.070    22588818.617
        46.100          31.000
 123726126.228 7  96409959.83344  23544294.336    23544296.125
        43.400          27.300
 127549973.989 6  99389401.52843  24271903.453    24271908.230
        40.700          20.400
 117430348.950 7  91504281.67945  22346268.344    22346270.660
        47.200          32.300
 107171717.171 8  83510407.71847  20394075.586    20394079.777
        51.200          42.100
 130442233.281 6 101643264.76543  24822320.188    24822326.605
        39.200          19.600
 111756645.005 8  87083143.70946  21266573.789    21266576.750
        48.800          37.900
 127260733.662 6  99164214.33343  24216904.852    24216907.695
        38.800          20.100
 125340248.750 6  97667766.39743  23851457.063    23851461.898
        39.200          19.300
 16  2 24  0 39  0.0000000  0 10G08G30G21G13G16G27G26G07G18G20
 111409976.999 8  86812989.67046  21200607.039    21200611.699
        49.700          38.100
 118633861.902 7  92442018.82445  22575269.586    22575273.777
        46.000          32.100
 123783138.919 7  96454385.08644  23555144.133    23555146.391
        43.200          28.800
 127480089.983 6  99334946.27543  24258605.383    24258610.277
        37.100          19.900
 117525566.277 7  91578477.42745  22364388.031    22364388.414
        46.800          32.300
 107176215.796 8  83513913.65146  20394930.750    20394935.703
        51.900          41.600
 130556190.370 6 101732062.62343  24844004.781    24844012.137
        38.900          18.300
 111742774.797 8  87072335.73746  21263934.180    21263937.082
        49.100          37.900
 127203009.381 6  99119234.27843  24205921.125    24205923.676
        39.600          18.600
 125382194.092 6  97700450.99243  23859439.813    23859444.355
        40.400          20.900
 16  2 24  0 39 30.0000000  0 10G08G30G21G13G16G27G26G07G18G20
 111347272.413 8  86764128.87246  21188674.922    21188679.992
        49.100          36.900
 118563145.167 7  92386914.94345  22561811.594    22561816.898
        45.500          32.200
 123840544.153 7  96499116.31644  23566066.352    23566070.074
        43.600          26.900
 127410699.927 6  99280876.02943  24245401.008    24245405.727
        40.000          20.600
 117621068.405 7  91652894.84145  22382559.500    22382561.699
        47.300          32.100
 107181277.258 8  83517857.38346  20395894.008    20395899.254
        50.900          41.400
 130670228.214 6 101820923.40242  24865706.797    24865712.102
        39.200          17.800
 111729524.781 8  87062011.05146  21261412.922    21261415.531
        48.900          36.800
 127145672.524 6  99074555.94643  24195010.398    24195012.539
        39.200          19.000
 125424700.119 6  97733572.59443  23867527.750    23867533.406
        40.100          19.900
 16  2 24  0 40  0.0000000  0 10G08G30G21G13G16G27G26G07G18G20
 111285017.459 8  86715618.25546  21176827.383    21176832.805
        49.900          36.900
 118492897.813 7  92332176.78845  22548444.133    22548449.379
        46.200          32.400
 123898341.432 7  96544152.72344  23577065.711    23577068.555
        43.400          26.700
 127341807.243 6  99227193.32143  24232290.734    24232296.098
        38.700          19.300
 117716854.827 7  91727533.53145  22400786.914    22400789.055
        46.300          30.900
 107186904.721 8  83522242.46947  20396964.688    20396970.227
        51.800          42.400
 130784346.605 6 101909846.83042  24887422.328    24887428.512
        39.400          17.400
 111716897.140 8  87052171.33246  21259009.555    21259012.223
        48.800          36.900
 127088727.151 6  99030182.98543  24184175.570    24184176.949
        40.700          19.600
 125467767.202 6  97767131.55043  23875724.547    23875727.977
        41.400          20.400
 16  2 24  0 40 30.0000000  0 10G08G30G21G13G16G27G26G07G18G20
 111223212.961 8  86667458.70646  21165067.898    21165072.676
        50.400          37.300
 118423121.374 7  92277805.58045  22535166.844    22535170.742
        46.300          32.700
 123956528.901 7  96589493.17244  23588138.508    23588140.648
        42.800          25.800
 127273413.821 6  99173899.89543  24219277.352    24219281.953
        38.800          21.100
 117812923.595 7  91802392.16645  22419067.180    22419071.137
        46.100          31.100
 107193095.906 8  83527066.64446  20398142.570    20398147.816
        51.300          41.700
 130898543.301 6 101998831.34442  24909154.578    24909159.414
        38.700          16.900
 111704891.719 8  87042816.48046  21256725.164    21256727.422
        48.800          36.900
 127032173.488 6  98986115.26143  24173414.234    24173415.906
        41.100          20.400
 125511392.638 6  97801125.62943  23884026.406    23884029.602
        41.200          19.300
 16  2 24  0 41  0.0000000  0 10G08G30G21G13G16G27G26G07G18G20
 111161861.805 8  86619652.87246  21153392.500    21153396.984
        50.300          38.300
 118353818.279 7  92223803.21345  22521978.141    22521982.977
        45.600          32.300
 124015105.001 7  96635136.46844  23599285.641    23599288.426
        43.200          25.700
 127205521.988 6  99120997.17143  24206357.430    24206361.152
        40.200          19.300
 117909273.100 7  91877469.55945  22437402.836    22437405.445
        45.900          30.600
 107199851.340 8  83532330.74447  20399428.273    20399433.520
        51.900          42.100
 131012816.960 6 102087875.93942  24930899.805    24930903.820
        38.400          16.300
 111693509.454 7  87033947.21146  21254559.344    21254561.426
        47.800          37.500
 126976014.604 6  98942355.50443  24162727.273    24162728.242
        41.300          21.100
 125555574.709 6  97835553.34443  23892433.523    23892437.891
        40.700          20.400
 16  2 24  0 41 30.0000000  0 10G08G30G21G13G16G27G26G07G18G20
 111100963.932 8  86572200.14446  21141803.484    21141808.672
        50.100          37.600
 118284991.140 7  92170171.71945  22508881.617    22508885.809
        46.700          33.100
 124074067.800 7  96681081.12344  23610507.680    23610508.531
        43.400          27.200
 127138135.612 6  99068488.72443  24193534.953    24193538.910
        39.500          20.400
 118005900.733 7  91952763.15845  22455791.164    22455793.715
        45.800          30.700
 107207170.272 8  83538033.90047  20400821.555    20400825.746
        51.100          42.100
 131127165.981 6 102176979.24242  24952660.258    24952663.746
        38.300          16.300
 111682750.881 8  87025563.90646  21252512.375    21252514.105
        48.200          37.200
 126920250.459 6  98898902.63143  24152117.148    24152116.770
        41.300          20.400
 125600311.574 6  97870413.02243  23900944.477    23900950.543
        39.100          19.300
 16  2 24  0 42  0.0000000  0 10G08G30G21G13G16G27G26G07G18G20
 111040521.429 8  86525102.24746  21130301.242    21130306.898
        50.200          37.900
 118216642.616 7  92116913.17945  22495873.734    22495878.922
        45.300          32.100
 124133417.686 7  96727327.94644  23621801.984    23621802.543
        43.700          26.700
 127071255.939 6  99016374.87343  24180807.031    24180811.340
        40.300          19.900
 118102806.911 7  92028274.27945  22474232.289    22474235.074
        45.400          30.400
 107215052.899 8  83544176.39646  20402320.242    20402326.250
        50.000          41.600
 131241589.000 6 102266140.08842  24974433.414    24974437.195
        37.500          14.800
 111672617.378 8  87017667.67746  21250583.258    21250586.395
        48.600          36.900
 126864885.696 6  98855761.21243  24141578.789    24141580.988
        40.100          19.900
 125645602.990 6  97905704.99143  23909565.523    23909568.895
        41.100          21.300
 16  2 24  0 42 30.0000000  0 10G08G30G21G13G16G27G26G07G18G20
 110980535.200 8  86478359.55746  21118885.859    21118891.633
        50.000          37.800
 118148775.020 7  92064029.39445  22482959.555    22482964.156
        45.800          32.600
 124193151.954 7  96773874.31644  23633167.547    23633169.277
        43.300          26.500
 127004885.693 6  98964657.94843  24168176.438    24168182.270
        40.400          20.100
 118199989.565 7  92104001.12045  22492725.797    22492727.820
        44.800          30.700
 107223498.229 8  83550757.21947  20403929.180    20403933.547
        50.900          43.000
 131356084.336 6 102355357.20742  24996221.406    24996225.715
        36.200          14.800
 111663109.418 8  87010258.89846  21248773.648    21248777.195
        49.000          37.700
 126809920.067 6  98812930.15443  24131121.109    24131120.672
        40.500          19.300
 125691446.187 6  97941426.39943  23918290.063    23918293.668
        41.700          20.900
 16  2 24  0 43  0.0000000  0 10G08G30G21G13G16G27G26G07G18G20
 110921006.406 8  86431973.40746  21107559.211    21107564.867
        49.900          38.100
 118081389.750 7  92011521.44045  22470136.148    22470140.867
        46.800          31.900
 124253268.278 7  96820718.53344  23644606.922    23644608.477
        42.200          24.800
 126939026.724 6  98913339.32143  24155645.375    24155649.098
        40.700          20.100
 118297444.675 7  92179939.95844  22511270.961    22511273.102
        45.000          29.000
 107232505.408 8  83557776.00147  20405643.516    20405647.648
        50.300          42.400
 131470650.131 6 102444629.40942  25018022.914    25018027.164
        36.500          17.800
 111654226.875 8  87003337.44346  21247084.461    21247087.070
        49.200          37.500
 126755357.993 6  98770414.43543  24120737.852    24120739.406
        40.500          19.300
 125737842.032 6  97977579.87043  23927117.586    23927121.719
        41.000          20.600
 16  2 24  0 43 30.0000000  0 10G08G30G21G13G16G27G26G07G18G20
 110861936.150 8  86385944.68146  21096319.086    21096323.863
        49.600          38.700
 118014488.598 7  91959390.70345  22457404.992    22457410.238
        46.000          32.500
 124313764.286 6  96867858.60044  23656119.211    23656121.000
        41.700          24.300
 126873681.015 6  98862420.71443  24143209.234    24143213.367
        39.400          19.300
 118395171.630 7  92256091.09344  22529867.172    22529869.781
        44.000          29.300
 107242072.866 8  83565231.18347  20407462.945    20407468.016
        51.300          42.600
 131585283.780 6 102533954.38042  25039837.617    25039841.691
        36.300          16.300
 111645970.036 8  86996903.56146  21245513.469    21245515.199
        48.600          37.900
 126701199.713 6  98728213.53943  24110429.594    24110433.141
        38.400          19.600
 125784785.214 6  98014159.45343  23936049.852    23936054.395
        40.200          21.700
 16  2 24  0 44  0.0000000  0 10G08G30G21G13G16G27G26G07G18G20
 110803326.107 8  86340274.34846  21085165.094    21085171.043
        49.600          37.800
 117948074.957 7  91907639.83845  22444767.797    22444772.516
        46.800          32.600
 124374639.337 7  96915294.09644  23667703.492    23667704.754
        42.600          25.200
 126808851.854 6  98811904.48343  24130873.281    24130876.301
        40.400          20.900
 118493168.435 7  92332452.27644  22548516.570    22548517.305
        45.100          29.400
 107252201.509 8  83573123.62046  20409390.250    20409395.145
        50.200          41.900
 131699984.896 5 102623332.01342  25061663.844    25061669.676
        35.100          16.900
 111638340.319 8  86990958.35046  21244061.992    21244063.664
        50.000          37.200
 126647447.746 6  98686329.41243  24100200.938    24100204.309
        40.500          21.700
 125832275.560 6  98051165.26143  23945087.719    23945091.734
        40.300          21.500
 16  2 24  0 44 30.0000000  0 10G08G30G21G13G16G27G26G07G18G20
 110745178.868 8  86294965.11846  21074100.336    21074105.172
        50.000          38.800
 117882151.132 7  91856270.65745  22432223.297    22432227.254
        47.300          33.100
 124435891.685 6  96963023.43244  23679358.750    23679360.480
        41.500          24.000
 126744542.133 6  98761793.03543  24118633.484    24118638.613
        39.300          19.900
 118591432.360 7  92409021.01844  22567214.656    22567216.328
        44.900          28.300
 107262890.817 8  83581453.00147  20411424.477    20411429.723
        50.500          42.300
 131814751.865 5 102712760.76342  25083503.297    25083507.605
        34.500          16.900
 111631338.188 8  86985502.15446  21242729.453    21242731.301
        49.400          36.600
 126594103.143 6  98644762.31943  24090051.484    24090053.508
        40.800          22.900
 125880311.636 6  98088596.43043  23954227.727    23954231.625
        39.900          20.400
 16  2 24  0 45  0.0000000  0 10G08G30G21G13G16G27G26G07G18G20
 110687494.188 8  86250016.18046  21063123.492    21063128.855
        51.100          38.600
 117816718.730 7  91805284.40345  22419772.273    22419775.527
        46.800          32.600
 124497518.379 6  97011044.15443  23691085.789    23691088.281
        41.100          23.900
 126680753.132 6  98712087.35343  24106496.320    24106500.277
        39.800          19.600
 118689962.665 7  92485797.46744  22585964.297    22585966.789
        44.200          28.400
 107274139.728 8  83590218.47346  20413565.156    20413569.875
        51.900          41.800
 131929582.456 5 102802239.18442  25105353.602    25105358.496
        34.600          16.300
 111624963.760 8  86980535.11446  21241515.242    21241518.320
        48.800          37.300
 126541168.115 7  98603514.37543  24079978.820    24079980.023
        42.100          22.500
 125928891.148 6  98126450.93243  23963471.156    23963475.055
        39.700          20.600
 16  2 24  0 45 30.0000000  0 10G08G30G21G13G16G27G26G07G18G20
 110630274.324 8  86205429.08546  21052234.281    21052240.113
        50.500          38.800
 117751781.456 7  91754683.96045  22407415.211    22407419.227
        47.800          33.000
 124559519.741 6  97059356.93943  23702883.367    23702886.211
        41.300          22.800
 126617488.811 6  98662790.54343  24094457.656    24094461.145
        40.700          20.600
 118788758.355 7  92562780.45744  22604764.797    22604767.992
        45.100          28.300
 107285948.776 8  83599420.32547  20415813.102    20415817.000
        52.000          43.200
 132044476.543 5 102891766.98642  25127216.922    25127222.930
        34.800          16.300
 111619218.826 8  86976058.53846  21240421.586    21240424.840
        48.800          37.500
 126488644.091 7  98562585.94543  24069983.594    24069985.090
        42.300          22.000
 125978013.160 6  98164727.88343  23972818.688    23972822.762
        41.000          20.400
 16  2 24  0 46  0.0000000  0  9G08G30G21G13G16G27G07G18G20
 110573517.439 8  86161202.33246  21041433.883    21041439.598
        49.900          37.900
 117687338.732 7  91704468.87945  22395150.563    22395155.516
        46.800          32.800
 124621891.191 7  97107957.83944  23714754.469    23714754.910
        42.000          24.400
 126554748.966 6  98613902.48543  24082517.492    24082522.504
        41.200          19.300
 118887816.962 7  92639969.34944  22623615.375    22623618.160
        44.200          28.000
 107298314.182 8  83609055.45247  20418166.188    20418170.203
        52.100          42.600
 111614101.312 8  86972070.84846  21239449.086    21239451.520
        49.800          38.000
 126436532.732 7  98521979.21443  24060066.961    24060068.750
        42.200          21.700
 126027673.049 6  98203423.59743  23982268.375    23982272.508
        41.100          20.400
 16  2 24  0 46 30.0000000  0  9G08G30G21G13G16G27G07G18G20
 110517225.429 8  86117337.44546  21030723.180    21030728.250
        50.000          37.700
 117623393.075 7  91654641.14645  22382980.969    22382987.270
        44.900          32.600
 124684631.409 6  97156845.91843  23726692.258    23726693.520
        41.700          23.000
 126492536.225 6  98565425.27743  24070678.844    24070683.563
        39.600          20.600
 118987134.495 7  92717359.61344  22642514.734    22642518.047
        44.100          27.800
 107311235.543 8  83619123.46947  20420626.617    20420630.047
        52.500          42.200
 111609612.153 8  86968572.79246  21238593.352    21238596.430
        48.700          37.100
 126384836.720 7  98481696.65543  24050231.164    24050231.840
        42.800          21.700
 126077870.983 6  98242539.02343  23991822.359    23991826.023
        40.900          21.100
 16  2 24  0 47  0.0000000  0 10G08G30G21G13G16G10G27G07G18G20
 110461405.135 8  86073841.56146  21020101.430    21020105.680
        49.800          38.000
 117559948.396 7  91605203.77745  22370910.281    22370914.063
        46.900          33.200
 124747740.902 6  97206021.84443  23738700.672    23738703.633
        41.100          22.300
 126430854.045 6  98517361.33943  24058941.109    24058946.297
        41.600          21.100
 119086711.380 7  92794952.02544  22661461.922    22661466.523
        43.700          28.100
 131414640.64815 102401111.85252  25007389.875    25007396.879
        35.700          16.900
 107324715.705 8  83629627.40447  20423190.688    20423194.996
        52.200          42.900
 111605752.865 8  86965565.57846  21237860.359    21237862.383
        49.500          37.700
 126333558.221 7  98441739.32343  24040473.109    24040474.137
        42.600          23.200
 126128606.313 6  98282073.49143  24001476.078    24001479.977
        41.300          20.900
 16  2 24  0 47 30.0000000  0 10G08G30G21G13G16G10G27G07G18G20
 110406053.592 8  86030710.73546  21009568.164    21009572.590
        50.400          38.400
 117497006.775 7  91556158.39045  22358931.492    22358936.797
        47.300          32.100
 124811217.625 6  97255484.11643  23750780.977    23750782.531
        40.200          22.300
 126369704.516 7  98469712.27043  24047306.969    24047309.930
        42.600          20.100
 119186547.281 7  92872747.09944  22680461.695    22680464.188
        45.300          29.100
 131314733.744 5 102323262.14643  24988378.859    24988385.922
        35.900          19.000
 107338752.449 8  83640564.88947  20425862.508    20425865.938
        52.800          42.900
 111602524.097 8  86963049.66446  21237245.531    21237248.551
        49.300          37.600
 126282696.495 7  98402105.23743  24030794.789    24030797.047
        42.100          21.800
 126179875.537 6  98322023.38943  24011232.102    24011235.590
        40.200          20.400
 16  2 24  0 48  0.0000000  0 10G08G30G21G13G16G10G27G07G18G20
 110351173.286 8  85987946.95046  20999124.867    20999129.234
        51.000          39.700
 117434570.982 7  91507507.16145  22347050.180    22347055.953
        47.300          33.300
 124875061.094 6  97305232.44443  23762930.242    23762931.973
        40.700          22.000
 126309091.568 7  98422481.53543  24035772.156    24035775.293
        43.400          20.400
 119286638.370 7  92950740.49544  22699507.742    22699510.469
        46.300          29.500
 131215015.534 6 102245558.36342  24969405.469    24969410.656
        36.400          17.800
 107353345.829 8  83651936.03047  20428639.172    20428643.773
        52.900          42.100
 111599926.965 8  86961025.92446  21236751.781    21236753.395
        49.900          37.600
 126232258.042 7  98362801.86643  24021196.648    24021199.551
        42.200          22.000
 126231679.234 6  98362389.95843  24021090.344    24021093.305
        40.600          20.100
 16  2 24  0 48 30.0000000  0 10G08G30G21G13G16G10G27G07G18G20
 110296764.384 8  85945550.58446  20988769.055    20988775.766
        49.600          38.300
 117372641.487 7  91459250.45245  22335265.172    22335271.355
        46.700          33.600
 124939267.142 6  97355263.22943  23775147.320    23775150.398
        40.600          22.900
 126249014.711 7  98375668.35243  24024340.242    24024342.559
        42.600          20.100
 119386982.158 7  93028930.63745  22718604.008    22718605.211
        47.000          30.900
 131115491.105 6 102168024.62352  24950467.156    24950474.277
        36.800          16.900
 107368493.941 8  83663739.51447  20431521.156    20431526.344
        52.500          42.100
 111597959.741 8  86959493.03646  21236377.750    21236379.363
        49.700          37.600
 126182243.884 7  98323830.23943  24011678.000    24011681.840
        42.600          22.600
 126284012.756 6  98403169.22943  24031050.016    24031053.152
        40.400          20.600
 16  2 24  0 49  0.0000000  0 10G08G30G21G13G16G10G27G07G18G20
 110242826.153 8  85903520.42146  20978505.859    20978511.984
        50.000          38.600
 117311219.858 7  91411389.47845  22323577.602    22323582.555
        47.200          34.100
 125003832.769 6  97405573.83043  23787434.039    23787436.531
        41.100          22.500
 126189476.361 6  98329274.93743  24013009.633    24013013.004
        41.700          21.500
 119487576.052 7  93107315.53645  22737746.109    22737746.961
        46.700          31.000
 131016165.721 6 102090629.28442  24931565.078    24931572.258
        37.900          17.400
 107384196.221 8  83675975.33246  20434509.078    20434514.090
        51.800          41.300
 111596622.634 8  86958451.10346  21236123.273    21236124.828
        49.700          37.900
 126132653.140 7  98285188.71243  24002241.602    24002244.094
        43.200          22.800
 126336874.639 6  98444360.19043  24041108.852    24041111.695
        41.000          21.100
 16  2 24  0 49 30.0000000  0 10G08G30G21G13G16G10G27G07G18G20
 110189360.777 8  85861858.75046  20968333.055    20968338.711
        51.000          39.400
 117250308.040 7  91363925.76045  22311985.336    22311990.230
        46.300          32.600
 125068754.594 6  97456161.10943  23799789.727    23799792.277
        39.800          22.300
 126130478.305 7  98283302.56843  24001782.680    24001785.816
        42.600          19.000
 119588417.931 7  93185893.53544  22756936.328    22756937.414
        46.400          29.900
 130917036.959 6 102013386.39542  24912700.664    24912706.613
        38.600          17.400
 107400449.914 8  83688640.34246  20437602.477    20437607.254
        52.300          41.800
 111595915.352 8  86957900.00046  21235988.172    21235990.664
        49.700          37.900
 126083488.462 7  98246879.65743  23992884.984    23992887.184
        42.900          22.600
 126390262.530 6  98485961.22143  24051267.313    24051271.094
        39.900          20.100
 16  2 24  0 50  0.0000000  0 10G08G30G21G13G16G10G27G07G18G20
 110136373.475 8  85820570.25746  20958251.383    20958254.461
        51.500          39.500
 117189911.197 7  91316863.31245  22300492.734    22300496.984
        47.000          33.200
 125134037.543 6  97507030.63444  23812213.883    23812215.555
        41.100          24.000
 126072024.671 7  98237753.97943  23990659.344    23990663.184
        42.500          19.300
 119689510.109 7  93264666.86844  22776171.289    22776173.840
        45.400          29.300
 130818111.544 6 101936301.60043  24893877.102    24893881.938
        38.700          19.000
 107417259.552 8  83701739.28647  20440800.328    20440805.867
        51.900          42.800
 111595841.383 8  86957842.36346  21235973.805    21235976.297
        49.900          37.100
 126034751.104 7  98208902.67943  23983611.703    23983612.027
        44.100          23.500
 126444177.708 6  98527973.38643  24061526.898    24061530.504
        40.100          21.700
 16  2 24  0 50 30.0000000  0 11G08G30G21G13G16G10G27G11G07G18G20
 110083863.284 8  85779653.63646  20948257.961    20948261.508
        51.400          38.900
 117130030.089 7  91270202.73845  22289095.891    22289102.777
        45.900          32.400
 125199677.924 6  97558179.01544  23824704.016    23824706.918
        40.600          24.400
 126014118.313 7  98192632.25643  23979640.266    23979643.930
        42.100          20.600
 119790848.512 7  93343631.98845  22795455.633    22795458.477
        45.500          30.200
 130719391.836 6 101859377.22842  24875090.531    24875096.129
        39.200          17.400
 107434621.642 8  83715268.65747  20444104.195    20444108.797
        52.100          42.300
 132042174.18516                  25126815.992
        37.400
 111596399.562 8  86958277.29746  21236079.563    21236081.762
        49.200          36.300
 125986444.447 7  98171261.31443  23974418.461    23974419.723
        43.400          22.300
 126498615.839 6  98570392.59943  24071887.578    24071888.781
        40.800          20.400
 16  2 24  0 51  0.0000000  0 11G08G30G21G13G16G10G27G11G07G18G20
 110031828.507 8  85739106.94046  20938354.797    20938359.633
        51.100          39.000
 117070665.556 7  91223944.67145  22277801.188    22277805.965
        46.000          33.200
 125265671.784 6  97609602.77844  23837263.398    23837264.484
        41.100          24.600
 125956759.380 6  98147937.23143  23968724.711    23968728.492
        40.700          20.100
 119892430.030 7  93422786.48344  22814783.750    22814788.176
        43.900          28.700
 130620879.775 6 101782614.71342  24856343.500    24856349.449
        37.900          17.800
 107452532.393 8  83729224.60047  20447513.867    20447517.766
        53.200          42.300
 131917641.463 6                  25103117.313
        38.400
 111597588.778 8  86959203.91546  21236306.641    21236308.723
        49.500          37.600
 125938568.219 7  98133955.12143  23965308.063    23965309.266
        43.400          22.200
 126553574.211 6  98613217.19443  24082347.070    24082347.219
        41.400          21.500
 16  2 24  0 51 30.0000000  0 11G08G30G21G13G16G10G27G11G07G18G20
 109980273.947 8  85698934.78146  20928544.609    20928549.445
        50.500          39.600
 117011821.188 7  91178091.91845  22266603.844    22266608.563
        46.300          33.000
 125332018.573 6  97661301.44543  23849887.180    23849889.906
        39.800          23.600
 125899951.386 6  98103671.52743  23957913.234    23957918.012
        40.200          20.400
 119994254.534 7  93502130.30244  22834161.523    22834164.191
        44.400          28.300
 130522579.553 6 101706017.15042  24837637.789    24837643.445
        39.000          17.800
 107470996.025 8  83743612.24747  20451027.531    20451031.195
        52.900          42.300
 131793148.087 6                  25079428.500
        40.000
 111599411.147 8  86960623.88046  21236653.117    21236655.023
        49.600          37.700
 125891126.151 6  98096987.40443  23956279.516    23956281.539
        41.600          23.000
 126609051.746 6  98656445.84043  24092903.109    24092905.484
        41.200          21.800
 16  2 24  0 52  0.0000000  0 11G08G30G21G13G16G10G27G11G07G18G20
 109929197.447 8  85659135.08146  20918822.672    20918829.266
        49.700          38.100
 116953496.460 7  91132644.10945  22255504.289    22255510.414
        45.800          33.500
 125398714.625 6  97713272.46343  23862578.516    23862581.711
        40.500          22.800
 125843692.918 6  98059833.66343  23947209.047    23947213.238
        40.900          20.600
 120096317.829 7  93581660.25244  22853583.016    22853586.270
        43.600          28.400
 130424491.893 6 101629585.26742  24818972.453    24818979.223
        40.100          17.800
 107490004.249 8  83758422.60047  20454644.742    20454649.344
        52.600          42.700
 131668693.864 6                  25055745.016
        41.400
 111601863.669 8  86962534.87646  21237120.180    21237121.676
        49.500          37.700
 125844117.115 7  98060357.15343  23947333.719    23947335.332
        42.200          22.600
 126665045.897 6  98700077.52243  24103560.406    24103560.848
        41.400          22.000
 16  2 24  0 52 30.0000000  0 11G08G30G21G13G16G10G27G11G07G18G20
 109878602.315 8  85619710.42646  20909196.234    20909201.422
        50.800          39.000
 116895695.974 7  91087604.79245  22244505.070    22244511.664
        46.400          33.400
 125465759.788 6  97765515.24743  23875337.859    23875340.293
        40.900          23.500
 125787989.966 6  98016428.95543  23936607.453    23936612.582
        41.800          19.900
 120198620.515 7  93661376.76745  22873052.320    22873054.051
        44.700          30.400
 130326621.791 6 101553322.74943  24800348.836    24800355.547
        40.900          20.400
 107509563.980 8  83773663.62347  20458366.977    20458371.227
        52.800          42.300
 131544283.374 6 102502150.16752  25032070.859    25032072.590
        40.800          16.900
 111604949.493 8  86964939.40146  21237708.375    21237709.754
        50.200          38.100
 125797544.774 6  98024067.06543  23938472.570    23938473.773
        41.600          22.600
 126721556.980 6  98744112.54343  24114313.648    24114314.441
        41.100          21.500
 16  2 24  0 53  0.0000000  0 11G08G30G21G13G16G10G27G11G07G18G20
 109828488.606 8  85580660.54046  20899659.828    20899665.426
        50.000          38.700
 116838421.135 7  91042975.06545  22233606.945    22233612.543
        46.900          33.500
 125533152.022 6  97818028.43144  23888163.680    23888165.059
        41.100          25.400
 125732842.945 6  97973457.16043  23926113.672    23926117.980
        41.500          19.300
 120301159.741 7  93741277.53144  22892563.469    22892566.195
        44.300          29.100
 130228972.053 6 101477231.92143  24781767.258    24781773.148
        40.600          20.600
 107529672.404 8  83789332.51447  20462193.531    20462197.781
        52.700          42.500
 131419918.562 6 102405242.48042  25008404.805    25008407.414
        41.700          16.300
 111608668.261 8  86967837.13746  21238415.102    21238416.891
        49.600          37.700
 125751411.971 6  97988119.91243  23929691.875    23929694.777
        41.700          22.300
 126778581.481 6  98788547.73843  24125162.859    24125164.531
        40.900          19.900
 16  2 24  0 53 30.0000000  0 11G08G30G21G13G16G10G27G11G07G18G20
 109778853.916 8  85541981.96746  20890217.359    20890222.254
        50.000          38.300
 116781673.307 7  90998755.99345  22222806.805    22222813.691
        44.700          33.500
 125600889.262 6  97870810.64743  23901053.188    23901054.449
        41.300          23.300
 125678254.458 6  97930920.67043  23915725.930    23915729.301
        40.200          19.000
 120403933.373 7  93821360.93944  22912120.430    22912123.098
        43.900          29.900
 130131545.076 6 101401314.68943  24763226.891    24763233.074
        40.200          19.900
 107550326.901 8  83805426.65947  20466124.453    20466128.176
        52.300          42.300
 131295600.880 6 102308371.45542  24984748.297    24984750.965
        41.500          16.300
 111613019.291 8  86971227.57046  21239243.469    21239244.730
        48.900          38.000
 125705717.094 6  97952513.32143  23920997.203    23920999.520
        39.200          22.800
 126836116.463 6  98833380.60843  24136111.070    24136113.328
        39.900          21.700
 16  2 24  0 54  0.0000000  0 11G08G30G21G13G16G10G27G11G07G18G20
 109729708.357 8  85503686.34746  20880864.180    20880870.012
        49.900          39.200
 116725456.716 7  90954950.87245  22212110.266    22212115.570
        46.500          33.800
 125668971.572 6  97923861.69243  23914007.242    23914010.262
        40.600          23.900
 125624228.116 7  97888822.27943  23905446.305    23905448.973
        42.200          20.400
 120506941.586 7  93901627.08244  22931721.383    22931724.051
        43.400          27.600
 130034345.907 6 101325574.93443  24744731.102    24744737.051
        40.600          21.300
 107571532.483 8  83821951.88946  20470157.859    20470162.930
        52.100          41.800
 131171334.369 7 102211540.16343  24961101.141    24961104.043
        42.000          18.300
 111618004.478 8  86975112.14846  21240192.070    21240193.859
        49.600          37.500
 125660465.703 6  97917252.38243  23912387.336    23912388.480
        40.700          22.600
 126894161.758 6  98878610.83243  24147155.898    24147159.152
        38.900          20.600
 16  2 24  0 54 30.0000000  0 11G08G30G21G13G16G10G27G11G07G18G20
 109681049.495 8  85465771.21946  20871603.406    20871610.234
        50.500          38.200
 116669770.692 7  90911559.18245  22201512.922    22201518.520
        46.800          34.500
 125737394.545 6  97977178.23044  23927029.914    23927030.590
        41.400          25.000
 125570763.830 6  97847162.26043  23895270.008    23895275.488
        41.200          19.300
 120610179.961 7  93982072.47944  22951367.563    22951370.582
        43.500          28.200
 129937375.237 6 101250013.37543  24726277.813    24726286.164
        40.900          22.200
 107593280.645 8  83838898.92246  20474295.992    20474300.945
        52.100          41.900
 131047119.242 7 102114748.92843  24937464.023    24937466.457
        42.600          18.300
 111623621.437 8  86979489.00546  21241260.094    21241262.996
        49.000          37.600
 125615655.888 7  97882335.17344  23903859.977    23903861.473
        42.400          24.300
 126952713.588 6  98924236.00743  24158296.531    24158300.254
        39.100          19.600
 16  2 24  0 55  0.0000000  0 11G08G30G21G13G16G10G27G11G07G18G20
 109632876.947 8  85428235.11846  20862436.828    20862442.133
        50.100          39.200
 116614617.916 7  90868583.00945  22191018.047    22191023.000
        46.700          34.300
 125806157.496 6  98030759.95944  23940115.727    23940115.934
        41.300          25.400
 125517863.197 7  97805941.13843  23885203.961    23885208.563
        42.400          20.100
 120713647.231 7  94062696.29844  22971057.500    22971060.402
        43.600          28.500
 129840636.848 7 101174632.86743  24707869.586    24707877.352
        42.000          22.600
 107615572.170 8  83856268.91847  20478538.359    20478542.844
        51.700          42.000
 130922957.981 6 102017999.43843  24913837.828    24913839.559
        40.600          19.000
 111629871.062 8  86984358.86246  21242449.305    21242451.855
        48.800          37.700
 125571290.961 6  97847764.94343  23895415.891    23895419.379
        40.600          22.600
 127011769.707 6  98970253.81943  24169536.969    24169538.465
        40.200          21.100
 16  2 24  0 55 30.0000000  0 11G08G30G21G13G16G10G27G11G07G18G20
 109585191.464 8  85391078.44946  20853362.039    20853367.520
        50.500          39.000
 116560000.385 8  90826023.92145  22180625.930    22180630.180
        48.000          34.200
 125875258.018 6  98084604.67044  23953263.898    23953265.395
        41.700          25.600
 125465528.615 7  97765160.89343  23875244.258    23875249.094
        42.000          22.000
 120817341.702 7  94143497.05444  22990789.867    22990792.125
        44.300          26.500
 129744133.607 7 101099435.67244  24689505.258    24689512.613
        42.200          24.400
 107638407.115 8  83874062.37946  20482882.938    20482888.242
        51.100          41.800
 130798853.887 6 101921294.74443  24890221.422    24890224.207
        41.500          18.600
 111636753.402 8  86989721.74146  21243760.109    21243761.723
        49.900          37.900
 125527372.221 6  97813542.42843  23887057.922    23887061.820
        37.800          22.500
 127071328.065 6  99016662.85743  24180869.445    24180872.230
        40.100          21.500
 16  2 24  0 56  0.0000000  0 11G08G30G21G13G16G10G27G11G07G18G20
 109537993.558 8  85354301.22246  20844379.945    20844385.250
        50.200          38.800
 116505920.320 7  90783883.63445  22170333.500    22170338.980
        46.500          34.700
 125944695.082 6  98138711.65444  23966476.594    23966478.324
        40.800          25.400
 125413763.013 6  97724824.28643  23865394.047    23865398.531
        40.100          21.300
 120921258.776 7                  23010564.906
        44.000
 129647868.491 7 101024423.95043  24671186.750    24671193.754
        42.700          22.500
 107661784.718 8  83892278.65047  20487332.047    20487336.648
        51.900          42.400
 130674809.186 6 101824636.40043  24866616.039    24866618.824
        40.800          19.300
 111644268.307 8  86995577.51846  21245188.813    21245191.422
        49.300          36.800
 125483901.637 6  97779669.02343  23878788.063    23878790.438
        40.400          23.000
 127131386.941 6  99063461.64043  24192298.375    24192301.922
        40.100          21.300
 16  2 24  0 56 30.0000000  0 11G08G30G21G13G16G10G27G11G07G18G20
 109491285.195 8  85317905.42746  20835492.344    20835496.770
        51.100          39.600
 116452379.590 7  90742163.59745  22160145.570    22160149.469
        47.100          33.900
 126014466.356 6  98193078.98344  23979752.898    23979755.684
        40.800          24.800
 125362567.742 7  97684931.99943  23855652.852    23855656.750
        43.100          22.600
 121025402.676 7  94305582.66354  23030383.398    23030386.711
        44.100          26.100
 129551842.292 7 100949597.12444  24652914.414    24652921.008
        42.100          25.600
 107685704.160 8  83910917.18947  20491884.766    20491888.430
        51.400          42.500
 130550825.832 6 101728025.69743  24843023.063    24843025.906
        40.600          19.600
 111652416.112 8  87001926.47846  21246739.758    21246741.898
        49.000          37.700
 125440881.127 7  97746146.37144  23870601.828    23870604.027
        42.500          24.700
 127191944.794 6  99110649.35443  24203823.016    24203825.742
        40.000          21.300
 16  2 24  0 57  0.0000000  0 11G08G30G21G13G16G10G27G11G07G18G20
 109445067.137 8  85281891.43346  20826696.266    20826701.746
        50.100          39.400
 116399380.343 7  90700865.46745  22150058.656    22150063.902
        47.600          33.600
 126084570.558 6  98247705.87444  23993093.242    23993095.910
        41.300          24.400
 125311945.182 7  97645486.14243  23846020.656    23846023.383
        43.900          22.200
 121129769.216 7  94386907.01144  23050244.703    23050247.430
        43.400          27.400
 129456059.960 7 100874960.01444  24634689.102    24634696.281
        42.600          24.200
 107710164.995 8  83929977.78546  20496538.367    20496542.969
        51.800          41.300
 130426905.962 6 101631464.36743  24819442.211    24819445.758
        39.900          19.600
 111661196.571 8  87008768.39446  21248409.742    21248412.527
        48.800          36.800
 125398311.464 7  97712974.70743  23862503.625    23862503.539
        43.300          22.200
 127252999.861 6  99158224.79843  24215443.039    24215445.004
        40.500          21.300
 16  2 24  0 57 30.0000000  0 11G08G30G21G13G16G10G27G11G07G18G20
 109399338.909 8  85246258.86746  20817994.531    20817999.484
        51.000          39.100
 116346923.170 7  90659989.73745  22140077.016    22140081.734
        46.100          33.600
 126155003.493 6  98302588.48343  24006496.391    24006499.762
        40.900          23.000
 125261895.497 7  97606486.49043  23836496.891    23836498.152
        42.700          22.600
 121234356.661 7  94468404.41744  23070147.305    23070148.273
        43.700          26.900
 129360528.851 7 100800521.19744  24616508.711    24616515.832
        42.100          24.700
 107735164.355 8  83949457.91746  20501295.484    20501300.145
        51.700          41.600
 130303049.731 6 101534951.89543  24795873.773    24795875.797
        40.100          19.600
 111670608.688 8  87016102.53546  21250200.641    21250203.895
        48.700          36.200
 125356193.670 6  97680155.37143  23854488.547    23854488.285
        41.700          22.500
 127314547.822 6  99206184.07543  24227152.992    24227156.656
        39.200          20.400
 16  2 24  0 58  0.0000000  0 11G08G30G21G13G16G10G27G11G07G18G20
 109354103.579 8  85211010.53846  20809386.727    20809391.855
        51.200          39.200
 116295010.976 7  90619538.67345  22130198.594    22130202.727
        46.300          34.000
 126225765.035 6  98357727.27343  24019962.398    24019964.656
        40.900          23.500
 125212421.509 7  97567935.25043  23827080.703    23827083.840
        44.000          21.700
 121339157.930 7  94550066.30744  23090092.453    23090094.301
        44.500          26.700
 129265246.694 6 100726275.68644  24598376.773    24598384.070
        41.800          24.100
 107760702.493 8  83969357.90747  20506155.297    20506159.195
        51.900          42.100
 130179263.954 6 101438495.42343  24772317.953    24772320.445
        40.400          19.000
 111680652.947 7  87023929.24546  21252112.461    21252115.188
        47.600          36.700
 125314530.117 7  97647690.13243  23846558.445    23846561.875
        42.600          23.000
 127376587.869 6  99254526.78643  24238958.648    24238962.195
        38.900          19.000
 16  2 24  0 58 30.0000000  0 11G08G30G21G13G16G10G27G11G07G18G20
 109309359.344 8  85176144.41146  20800873.188    20800878.141
        50.400          39.200
 116243644.428 7  90579512.76145  22120424.695    22120428.535
        46.700          34.600
 126296852.431 6  98413119.97943  24033489.328    24033492.055
        41.600          22.800
 125163524.573 7  97529833.65143  23817775.344    23817779.125
        43.200          21.100
 121444176.873 7  94631899.09344  23110076.375    23110078.340
        44.000          26.200
 129170216.653 6 100652226.71244  24580292.289    24580300.406
        41.400          26.200
 107786776.520 8  83989675.08746  20511116.227    20511121.531
        50.600          41.200
 130055547.830 6 101342093.23643  24748775.281    24748778.594
        39.600          18.600
 111691328.230 8  87032247.63446  21254144.641    21254146.488
        48.000          37.200
 125273321.680 7  97615579.62443  23838717.250    23838718.980
        42.900          23.300
 127439116.855 6  99303250.62943  24250857.047    24250861.414
        38.300          19.900
 16  2 24  0 59  0.0000000  0 11G08G30G21G13G16G10G27G11G07G18G20
 109265109.656 8  85141663.72346  20792453.273    20792458.461
        51.300          40.000
 116192826.391 7  90539914.29445  22110753.148    22110758.746
        46.200          34.000
 126368264.775 6  98468765.95444  24047079.680    24047081.820
        41.300          24.200
 125115207.370 6  97492183.91243  23808580.516    23808584.590
        41.900          21.300
 121549411.762 7  94713900.83744  23130101.141    23130103.281
        43.700          26.100
 129075442.451 6 100578376.97844  24562258.617    24562264.742
        40.500          26.200
 107813387.984 8  84010411.47046  20516181.391    20516185.816
        52.500          41.900
 129931905.245 6 101245748.74043  24725246.422    24725249.559
        38.800          19.300
 111702635.545 8  87041058.54146  21256295.813    21256298.305
        48.500          36.500
 125232570.023 6  97583824.80443  23830962.859    23830964.648
        40.800          23.800
 127502132.795 6  99352353.57843  24262849.398    24262852.770
        38.600          20.900
 16  2 24  0 59 30.0000000  0 11G08G30G21G13G16G10G27G11G07G18G20
 109221355.686 8  85107569.16646  20784126.625    20784133.219
        50.300          39.500
 116142559.416 7  90500745.22945  22101188.805    22101193.641
        47.100          34.200
 126439999.968 6  98524663.28643  24060730.977    24060732.355
        41.600          23.200
 125067472.318 7  97454987.85643  23799497.500    23799500.578
        42.000          20.900
 121654858.893 7  94796067.49344  23150167.609    23150168.930
        42.500          26.700
 128980927.007 6 100504728.34144  24544272.000    24544278.887
        39.900          26.000
 107840535.690 8  84031565.68647  20521346.977    20521351.520
        51.600          42.100
 129808338.302 6 101149463.17843  24701732.742    24701735.410
        37.100          19.000
 111714575.183 8  87050362.12946  21258568.844    21258570.340
        48.000          37.200
 125192278.101 6  97552428.30743  23823295.602    23823297.918
        41.300          23.800
 127565634.399 6  99401834.73443  24274935.344    24274937.777
        40.300          20.600
 16  2 24  1  0  0.0000000  0 11G08G30G21G13G16G10G27G11G07G18G20
 109178096.870 8  85073860.35446  20775895.047    20775900.996
        50.300          39.400
 116092844.044 8  90462005.96645  22091729.234    22091732.781
        48.500          34.600
 126512056.081 6  98580810.84843  24074440.992    24074444.949
        40.100          22.900
 125020319.625 6  97418245.47243  23790524.086    23790528.043
        41.600          20.900
 121760513.825 7  94878394.70644  23170271.602    23170275.090
        42.200          26.000
 128886672.973 6 100431283.40844  24526336.305    24526343.367
        39.200          25.200
 107868214.467 8  84053132.29146  20526614.922    20526620.109
        50.200          40.800
 129684847.961 6 101053237.15243  24678232.602    24678235.621
        37.200          18.300
 111727145.715 8  87060157.29946  21260959.594    21260962.438
        48.300          36.700
 125152445.647 6  97521389.85744  23815714.492    23815717.453
        40.500          24.100
 127629619.454 6  99451693.03943  24287110.203    24287113.867
        39.800          19.600
 16  2 24  1  0 30.0000000  0 11G08G30G21G13G16G10G27G11G07G18G20
 109135338.262 8  85040541.89646  20767758.805    20767764.930
        51.200          39.800
 116043684.160 7  90423699.51845  22082373.406    22082378.359
        47.100          34.200
 126584433.081 6  98637208.57343  24088214.188    24088217.793
        40.400          22.600
 124973753.432 7  97381960.11543  23781663.961    23781665.984
        42.700          21.500
 121866381.449 6  94960889.13544  23190417.680    23190420.523
        41.300          25.300
 128792686.121 6 100358046.98944  24508450.148    24508458.559
        39.300          24.700
 107896431.809 8  84075120.39247  20531985.008    20531989.316
        52.900          43.000
 129561438.717 5 100957074.26043  24654748.586    24654752.133
        35.500          18.600
 111740348.034 8  87070444.46246  21263472.703    21263475.371
        48.000          37.500
 125113075.962 7  97490711.92144  23808224.023    23808225.871
        43.500          25.200
 127694085.772 6  99501925.93543  24299377.938    24299381.016
        40.000          21.300
 16  2 24  1  1  0.0000000  0 11G08G30G21G13G16G10G27G11G07G18G20
 109093077.443 8  85007611.49946  20759716.609    20759722.793
        51.000          39.700
 115995079.431 7  90385825.69245  22073124.188    22073128.848
        46.300          33.800
 126657127.908 6  98693854.38043  24102046.703    24102050.719
        39.000          22.200
 124927773.609 6  97346131.66843  23772914.375    23772916.750
        40.600          21.500
 121972456.639 6  95043545.81044  23210602.391    23210606.230
        41.200          25.300
 128698967.087 6 100285019.50644  24490615.234    24490623.410
        38.400          24.200
 107925178.908 8  84097520.25347  20537454.898    20537460.203
        52.200          42.300
 129438110.983 6 100860974.88842  24631281.227    24631283.191
        37.100          17.400
 111754181.981 8  87081224.52046  21266106.000    21266107.906
        48.700          37.900
 125074165.800 7  97460390.67144  23800822.922    23800822.777
        43.900          25.300
 127759030.106 6  99552531.23643  24311737.250    24311740.680
        40.100          21.100
 16  2 24  1  1 30.0000000  0 11G08G30G21G13G16G10G27G11G07G18G20
 109051316.455 8  84975071.00146  20751770.250    20751775.086
        50.300          39.800
 115947032.627 7  90348386.60845  22063980.469    22063986.066
        47.000          34.000
 126730138.433 6  98750746.40243  24115939.844    24115943.625
        40.000          22.500
 124882382.738 6  97310762.21743  23764275.445    23764279.168
        40.800          21.100
 122078737.016 7  95126362.10544  23230828.672    23230830.695
        42.700          26.900
 128605516.150 6 100212199.18344  24472833.219    24472841.746
        37.500          24.000
 107954456.996 8  84120333.36347  20543026.828    20543032.543
        51.500          42.200
 129314868.168 6 100764941.68743  24607829.359    24607830.563
        37.400          18.600
 111768645.793 8  87092494.60746  21268858.406    21268860.840
        48.100          37.600
 125035722.016 7  97430435.57654  23793505.852    23793508.227
        44.300          24.500
 127824452.316 6  99603509.59743  24324185.984    24324190.586
        39.900          20.600
 16  2 24  1  2  0.0000000  0 11G08G30G21G13G16G10G27G11G07G18G20
 109010055.264 8  84942919.58046  20743917.320    20743923.211
        50.400          38.700
 115899545.960 7  90311383.98145  22054944.977    22054949.637
        46.500          33.600
 126803462.659 6  98807882.45543  24129893.641    24129896.367
        39.600          21.500
 124837582.990 6  97275853.44243  23755750.414    23755753.609
        41.800          21.700
 122185220.696 7  95209336.18844  23251092.922    23251094.359
        43.500          28.000
 128512342.402 6 100139596.09844  24455104.563    24455111.625
        39.900          24.800
 107984268.907 8  84143563.95046  20548699.555    20548704.801
        51.300          41.800
 129191712.929 6 100668976.55443  24584394.242    24584394.801
        38.700          19.000
 111783741.972 7  87104258.30946  21271730.109    21271733.129
        47.200          36.800
 124997745.222 7  97400842.14244  23786280.273    23786281.945
        42.500          24.300
 127890348.671 6  99654856.96243  24336725.117    24336729.777
        40.400          21.500
 16  2 24  1  2 30.0000000  0 11G08G30G21G13G16G10G27G11G07G18G20
 108969294.380 8  84911158.26246  20736160.875    20736166.531
        49.900          39.400
 115852619.020 7  90274817.50945  22046014.672    22046019.156
        47.300          34.100
 126877096.056 6  98865258.96343  24143906.758    24143907.609
        41.300          22.600
 124793373.625 7  97241404.55243  23747338.016    23747341.621
        42.000          21.300
 122291906.018 7  95292468.10944  23271392.211    23271395.406
        42.200          26.500
 128419445.428 6 100067209.24144  24437427.547    24437433.379
        39.000          25.000
 108014606.352 8  84167202.78347  20554473.828    20554477.961
        52.300          42.000
 129068645.411 6 100573079.71742  24560973.727    24560976.336
        38.400          17.400
 111799465.942 7  87116510.78846  21274722.125    21274725.027
        47.800          36.900
 124960236.450 7  97371618.79653  23779140.336    23779144.000
        42.500          23.900
 127956716.377 6  99706572.10943  24349356.758    24349359.777
        40.700          21.800
 16  2 24  1  3  0.0000000  0 11G08G30G21G13G16G10G27G11G07G18G20
 108929037.107 8  84879789.64846  20728499.500    20728504.922
        50.200          39.600
 115806256.757 8  90238691.03045  22037193.563    22037197.520
        48.300          34.200
 126951040.517 6  98922877.42843  24157978.320    24157980.168
        39.700          22.200
 124749759.705 6  97207419.66943  23739037.602    23739042.145
        41.200          21.800
 122398792.641 7  95375756.70644  23291732.031    23291735.754
        42.000          26.500
 128326827.827 6  99995038.81043  24419802.336    24419809.223
        39.400          23.900
 108045477.507 8  84191259.45747  20560348.336    20560351.473
        52.900          42.300
 128945671.365 6 100477255.82943  24537572.500    24537575.402
        38.500          19.000
 111815821.517 7  87129255.39346  21277834.352    21277837.020
        47.900          36.800
 124923202.568 7  97342763.60044  23772093.133    23772095.918
        44.300          24.400
 128023555.194 6  99758654.13643  24362073.914    24362079.043
        40.800          20.900
 16  2 24  1  3 30.0000000  0 11G08G30G21G13G16G10G27G11G07G18G20
 108889276.571 8  84848805.91746  20720934.844    20720940.969
        49.700          39.600
 115760457.665 7  90203003.41445  22028477.961    22028482.211
        46.500          34.500
 127025292.245 6  98980735.49843  24172107.008    24172109.266
        40.100          21.500
 124706739.527 6  97173897.03243  23730851.609    23730855.449
        39.000          21.300
 122505875.569 7  95459198.28144  23312108.227    23312112.477
        43.000          26.000
 128234496.289 6  99923093.55644  24402231.523    24402238.703
        38.700          24.700
 108076873.636 8  84215724.87847  20566321.672    20566325.336
        52.600          42.500
 128822789.863 6 100381504.09143  24514189.508    24514191.004
        38.200          18.600
 111832804.883 7  87142489.16646  21281065.508    21281069.113
        45.600          36.400
 124886632.156 7  97314266.66844  23765134.781    23765136.277
        43.200          25.400
 128090860.088 6  99811099.43543  24374881.813    24374886.766
        40.500          21.100
 16  2 24  1  4  0.0000000  0 11G08G30G21G13G16G10G27G11G07G18G20
 108850024.026 8  84818220.07846  20713464.555    20713470.035
        49.500          39.700
 115715224.574 7  90167756.84245  22019870.570    22019874.410
        47.200          35.100
 127099850.371 6  99038832.95243  24186295.063    24186296.266
        39.300          20.100
 124664316.350 6  97140839.83043  23722781.141    23722782.695
        40.000          21.100
 122613154.588 7  95542792.69344  23332523.734    23332526.344
        42.900          26.700
 128142448.864 6  99851368.84743  24384714.992    24384722.289
        39.400          22.500
 108108791.890 8  84240595.32847  20572395.953    20572399.500
        52.300          42.600
 128700004.262 6 100285826.95643  24490823.461    24490825.719
        38.700          18.600
 111850416.717 7  87156212.65146  21284417.930    21284420.363
        47.900          36.200
 124850532.070 7  97286135.80544  23758265.469    23758267.258
        42.900          25.000
 128158630.913 6  99863908.64143  24387778.406    24387782.070
        41.200          21.100
 16  2 24  1  4 30.0000000  0 11G08G30G21G13G16G10G27G11G07G18G20
 108811273.554 8  84788024.52346  20706091.664    20706096.676
        51.000          39.200
 115670559.473 7  90132952.85245  22011370.414    22011375.191
        46.900          35.000
 127174712.131 6  99097166.66143  24200539.688    24200541.652
        38.800          19.900
 124622492.278 6  97108249.74643  23714820.680    23714823.523
        41.500          20.900
 122720626.907 7  95626537.26644  23352974.125    23352977.613
        43.200          25.800
 128050690.750 6  99779869.74243  24367253.617    24367260.504
        38.900          23.500
 108141235.372 8  84265875.36547  20578569.352    20578574.246
        52.500          42.100
 128577317.455 6 100190226.94943  24467477.508    24467478.828
        38.800          19.300
 111868656.797 7  87170425.60846  21287888.141    21287890.867
        46.900          36.100
 124814906.838 7  97258375.96443  23751485.648    23751489.078
        43.800          22.800
 128226863.672 6  99917077.48743  24400762.953    24400766.148
        41.700          19.900
 16  2 24  1  5  0.0000000  0 11G08G30G21G13G16G10G27G11G07G18G20
 108773027.366 8  84758221.15146  20698813.055    20698819.121
        48.600          39.600
 115626464.116 8  90098592.82445  22002979.617    22002984.336
        48.100          34.900
 127249876.942 6  99155736.75043  24214840.617    24214845.102
        37.100          19.600
 124581268.226 6  97076127.11643  23706976.211    23706978.996
        38.500          21.500
 122828291.753 7  95710431.70244  23373462.500    23373464.758
        42.800          27.000
 127959224.516 6  99708597.97544  24349848.188    24349854.254
        39.700          24.800
 108174202.873 8  84291563.63547  20584843.344    20584848.004
        52.200          42.600
 128454731.736 6 100094705.62043  24444149.016    24444151.098
        39.000          18.600
 111887524.706 7  87185127.69646  21291479.633    21291481.305
        47.600          36.600
 124779755.749 6  97230985.48443  23744795.422    23744798.969
        40.100          22.600
 128295556.696 6  99970605.04143  24413833.445    24413837.520
        41.700          20.100
 16  2 24  1  5 30.0000000  0 11G08G30G21G13G16G10G27G11G07G18G20
 108735293.207 8  84728819.51946  20691631.227    20691637.117
        49.100          38.600
 115582941.480 7  90064679.07645  21994698.117    21994702.250
        46.900          34.800
 127325343.686 6  99214542.08743  24229203.695    24229206.539
        37.900          21.300
 124540647.656 6  97044474.63543  23699246.742    23699249.996
        38.800          22.200
 122936148.712 7  95794475.88943  23393986.383    23393988.875
        42.500          23.600
 127868054.906 6  99637557.44043  24332496.953    24332504.777
        38.600          23.800
 108207695.716 8  84317662.44846  20591217.070    20591222.141
        51.000          41.800
 128332251.158 6  99999266.23643  24420840.883    24420844.957
        39.400          20.400
 111907021.520 7  87200319.88646  21295189.055    21295191.547
        47.500          36.000
 124745082.281 7  97203967.31743  23738197.398    23738201.297
        43.000          22.500
 128364708.902 6 100024490.33443  24426992.961    24426996.098
        41.700          18.600
 16  2 24  1  6  0.0000000  0 11G08G30G21G13G16G10G27G11G07G18G20
 108698060.041 8  84699805.48346  20684547.836    20684552.848
        49.100          39.200
 115539990.990 7  90031211.13445  21986524.773    21986529.082
        47.200          35.700
 127401107.462 6  99273578.75343  24243622.070    24243624.621
        38.700          21.100
 124500630.127 6  97013292.32243  23691629.016    23691634.672
        38.600          22.000
 123044194.326 7  95878667.30444  23414548.617    23414549.645
        43.500          25.000
 127777182.289 6  99566748.23544  24315205.852    24315211.918
        40.000          25.100
 108241709.378 8  84344166.87347  20597689.016    20597694.203
        50.900          42.000
 128209875.539 6  99903908.54843  24397554.398    24397557.535
        40.100          19.000
 111927144.795 7  87216000.24745  21299017.758    21299021.188
        45.700          35.800
 124710885.064 6  97177320.29943  23731689.734    23731693.633
        39.900          23.400
 128434315.434 7 100078729.33043  24440238.813    24440240.484
        42.100          19.000
 16  2 24  1  6 30.0000000  0 11G08G30G21G13G16G10G27G11G07G18G20
 108661337.921 8  84671191.43246  20677559.977    20677564.461
        50.000          38.800
 115497615.568 7  89998191.33945  21978458.914    21978465.508
        47.000          34.600
 127477168.211 6  99332846.87943  24258096.164    24258098.070
        38.900          21.800
 124461217.628 6  96982581.29943  23684129.422    23684133.906
        38.800          20.400
 123152427.316 7  95963004.62844  23435144.141    23435145.754
        42.400          25.600
 127686610.316 6  99496172.95344  24297971.313    24297975.855
        40.400          25.800
 108276242.549 8  84371075.70146  20604260.117    20604265.422
        51.900          41.300
 128087608.813 6  99808635.72543  24374287.047    24374291.414
        39.700          19.000
 111947895.114 7  87232169.25545  21302967.734    21302970.227
        47.300          35.800
 124677167.825 7  97151048.11744  23725272.930    23725276.828
        43.200          24.800
 128504375.206 6 100133321.34543  24453570.414    24453572.730
        41.700          18.600
 16  2 24  1  7  0.0000000  0 11G08G30G21G13G16G10G27G11G07G18G20
 108625122.514 8  84642971.26146  20670667.094    20670673.160
        48.800          38.900
 115455816.122 7  89965620.33545  21970505.336    21970510.406
        47.300          35.100
 127553522.022 6  99392342.52843  24272627.523    24272629.254
        39.600          21.500
 124422411.634 6  96952342.89943  23676745.461    23676749.359
        37.900          20.100
 123260845.403 7  96047486.08644  23455774.836    23455778.207
        42.700          25.000
 127596342.271 6  99425834.57944  24280793.094    24280798.105
        40.000          24.600
 108311294.577 8  84398388.77247  20610931.297    20610936.074
        52.700          42.200
 127965452.779 6  99713449.33643  24351043.094    24351044.707
        39.900          19.300
 111969270.884 7  87248825.45346  21307035.516    21307038.184
        47.600          36.400
 124643927.722 7  97125146.46244  23718949.703    23718952.254
        44.500          24.800
 128574885.861 6 100188264.96743  24466986.609    24466990.625
        41.200          19.000
 16  2 24  1  7 30.0000000  0 11G08G30G21G13G16G10G27G11G07G18G20
 108589418.965 8  84615150.92346  20663873.844    20663879.266
        50.300          39.900
 115414595.073 7  89933499.96145  21962660.805    21962666.168
        47.000          34.900
 127630171.458 6  99452069.56343  24287211.633    24287214.418
        39.700          22.800
 124384214.467 7  96922578.91143  23669476.727    23669481.094
        42.300          20.900
 123369446.748 7  96132110.03744  23476442.328    23476444.469
        43.400          25.300
 127506381.396 6  99355735.27144  24263671.453    24263679.805
        40.000          26.000
 108346866.270 8  84426107.48747  20617699.469    20617704.422
        52.000          42.300
 127843410.875 6  99618351.92743  24327818.664    24327821.684
        39.000          20.100
 111991272.744 7  87265969.40845  21311223.164    21311225.012
        47.100          35.900
 124611170.868 7  97099622.23544  23712714.406    23712717.836
        43.700          25.500
 128645845.815 6 100243558.71643  24480490.328    24480493.816
        41.200          18.600
 16  2 24  1  8  0.0000000  0 11G08G30G21G13G16G10G27G11G07G18G20
 108554224.158 8  84587726.65646  20657175.750    20657181.113
        50.700          39.400
 115373952.338 7  89901829.74945  21954928.047    21954932.531
        47.100          34.100
 127707110.692 6  99512021.90343  24301852.492    24301855.453
        39.900          22.500
 124346626.709 7  96893289.94543  23662325.539    23662328.266
        42.600          22.500
 123478230.007 7  96216875.81544  23497144.125    23497145.035
        43.000          26.700
 127416728.971 6  99285875.77244  24246613.180    24246620.652
        41.400          26.000
 108382952.911 8  84454226.72047  20624567.008    20624571.727
        52.700          42.000
 127721484.016 6  99523344.14943  24304617.039    24304619.355
        40.400          18.600
 112013899.411 7  87283600.35346  21315528.352    21315530.961
        47.600          36.800
 124578894.079 7  97074471.24443  23706572.461    23706575.598
        43.400          22.300
 128717251.420 6 100299199.65543  24494077.797    24494081.813
        40.800          18.300
 16  2 24  1  8 30.0000000  0 11G08G30G21G13G16G10G27G11G07G18G20
 108519542.670 8  84560702.17446  20650575.297    20650581.656
        49.500          39.000
 115333894.131 7  89870615.62145  21947305.242    21947309.492
        46.300          33.800
 127784338.795 6  99572197.79643  24316551.852    24316553.465
        40.400          21.100
 124309652.515 6  96864478.83443  23655287.578    23655293.176
        38.900          21.800
 123587193.991 7  96301781.23944  23517877.938    23517881.895
        42.100          24.600
 127327382.956 6                  24229614.672
        40.500
 108419558.889 8  84482751.33246  20631532.156    20631536.992
        51.900          41.500
 127599677.752 6  99428430.19943  24281436.797    24281439.934
        40.600          19.000
 112037153.118 7  87301720.01746  21319953.258    21319956.219
        47.000          36.600
 124547104.310 7  97049700.09143  23700522.313    23700525.508
        42.000          22.900
 128789103.253 7 100355188.17643  24507752.359    24507755.555
        42.000          18.600
 16  2 24  1  9  0.0000000  0 11G08G30G21G13G16G10G27G11G07G18G20
 108485368.746 8  84534073.17046  20644072.430    20644078.203
        50.500          39.300
 115294414.008 7  89839851.53345  21939791.609    21939797.148
        46.200          34.200
 127861856.465 6  99632602.78143  24331300.211    24331303.172
        39.400          22.500
 124273286.904 7  96836142.04343  23648368.852    23648372.105
        42.600          22.000
 123696334.702 6  96386825.77243  23538645.000    23538649.777
        41.500          22.800
 127238361.985 6  99146889.80554  24212673.055    24212681.406
        40.200          25.000
 108456674.696 8  84511672.92047  20638595.961    20638600.211
        52.500          42.300
 127477988.278 6  99333607.39943  24258280.023    24258283.043
        40.600          20.600
 112061025.540 7  87320321.37946  21324495.695    21324499.301
        47.500          36.400
 124515796.872 7  97025305.55643  23694564.258    23694567.512
        42.600          23.600
 128861392.028 6 100411517.19443  24521506.984    24521511.293
        41.300          18.600
 16  2 24  1  9 30.0000000  0 11G08G30G21G13G16G10G27G11G07G18G20
 108451705.263 8  84507840.89346  20637667.070    20637673.078
        48.700          39.100
 115255519.202 7  89809544.26645  21932391.336    21932395.234
        46.700          35.000
 127939656.817 6  99693226.50943  24346104.344    24346108.945
        40.300          21.800
 124237535.199 6  96808283.61643  23641565.141    23641569.215
        40.100          22.000
 123805652.863 6  96472009.34643  23559447.555    23559452.801
        39.900          21.800
 127149656.807 6  99077757.72554  24195793.391    24195800.453
        41.400          25.100
 108494303.507 8  84540994.27547  20645756.211    20645759.465
        52.000          42.000
 127356421.253 6  99238879.76943  24235146.789    24235149.691
        40.600          20.400
 112085521.248 8  87339408.48146  21329159.352    21329161.141
        48.600          37.600
 124484973.671 6  97001287.56144  23688700.266    23688702.348
        41.300          24.500
 128934119.881 6 100468188.37943  24535347.625    24535351.699
        41.900          18.300
 16  2 24  1 10  0.0000000  0 11G08G30G21G13G16G10G27G11G07G18G20
 108418557.711 8  84482012.02846  20631360.008    20631365.254
        48.800          39.400
 115217209.565 7  89779692.53545  21925100.531    21925105.953
        46.400          35.200
 128017740.639 6  99754071.18743  24360964.281    24360966.656
        39.600          21.500
 124202399.521 7  96780905.33443  23634879.961    23634883.508
        42.200          22.800
 123915144.063 6  96557326.62343  23580284.188    23580288.027
        41.000          22.500
 127061274.990 6  99008889.36844  24178973.922    24178981.980
        40.900          24.900
 108532444.433 8  84570714.78647  20653013.797    20653017.813
        51.600          42.100
 127234980.330 6  99144250.60843  24212037.797    24212040.875
        40.400          21.100
 112110641.084 8  87358982.60446  21333939.852    21333941.465
        48.800          37.700
 124454636.625 6  96977647.85843  23682927.125    23682929.969
        41.200          22.800
 129007283.747 6 100525199.12643  24549270.242    24549273.672
        41.600          18.300
 16  2 24  1 10 30.0000000  0 12G08G30G21G13G16G10G27G11G07G18G20G15
 108385923.832 8  84456583.51246  20625149.664    20625154.969
        48.500          39.900
 115179486.526 7  89750297.89545  21917921.883    21917928.301
        46.700          34.600
 128096105.334 6  99815134.43843  24375876.156    24375880.230
        40.300          21.800
 124167880.084 7  96754007.17843  23628310.828    23628314.375
        42.100          22.500
 124024809.177 6  96642780.22343  23601152.539    23601157.316
        40.800          23.400
 126973216.865 7  98940272.76744  24162217.273    24162224.160
        42.300          25.000
 108571094.903 8  84600832.04746  20660368.828    20660373.371
        50.500          41.500
 127113666.515 6  99049720.32843  24188952.414    24188955.961
        40.900          21.500
 112136380.442 7  87379038.88246  21338837.289    21338840.074
        47.000          37.600
 124424788.552 6  96954389.68744  23677248.156    23677250.063
        41.600          25.800
 129080881.689 6 100582548.36642  24563275.445    24563278.992
        41.400          17.800
 130907399.35115 102005814.05452  24910861.109    24910863.484
        34.700          15.600
 16  2 24  1 11  0.0000000  0 12G08G30G21G13G16G10G27G11G07G18G20G15
 108353803.665 8  84431555.18146  20619036.516    20619041.820
        50.000          40.100
 115142351.624 7  89721361.65845  21910856.023    21910861.563
        47.900          35.500
 128174749.442 6  99876415.75043  24390841.023    24390845.449
        40.200          21.700
 124133978.281 7  96727590.39543  23621859.742    23621862.527
        42.900          22.900
 124134643.682 7  96728365.13543  23622055.102    23622058.824
        42.500          22.900
 126885485.751 7  98871910.98344  24145522.508    24145528.926
        42.700          25.800
 108610253.206 8  84631344.65746  20667818.781    20667824.496
        50.800          41.500
 126992482.605 6  98955291.39943  24165892.391    24165894.297
        41.000          21.100
 112162743.653 8  87399583.00946  21343852.648    21343855.434
        48.000          36.300
 124395428.695 7  96931511.68244  23671661.352    23671663.609
        42.100          26.100
 129154910.241 6 100640233.05142  24577361.914    24577365.051
        40.900          16.300
 130838367.923 5 101952022.04042  24897724.914    24897728.695
        33.800          16.300
 16  2 24  1 11 30.0000000  0 13G08G30G21G13G16G10G27G11G07G18G20G15
                                G28
 108322198.203 8  84406927.82246  20613022.336    20613027.406
        49.800          40.400
 115105806.074 8  89692884.33245  21903903.227    21903907.184
        48.100          35.000
 128253669.894 6  99937911.68043  24405860.484    24405863.504
        40.800          21.500
 124100695.283 7  96701655.57843  23615526.359    23615529.145
        42.700          22.800
 124244647.062 7  96814081.46144  23642989.297    23642992.082
        43.000          24.800
 126798083.962 7  98803805.14844  24128890.883    24128898.766
        42.200          26.400
 108649919.099 8  84662252.69546  20675368.508    20675372.992
        51.000          41.000
 126871431.533 6  98860966.10043  24142856.617    24142858.348
        40.900          20.900
 112189724.521 7  87420606.97846  21348987.039    21348990.059
        47.600          37.100
 124366560.686 7  96909017.43444  23666167.016    23666169.566
        42.300          26.000
 129229367.748 6 100698251.91742  24591530.383    24591533.813
        40.700          16.300
 130769777.335 5 101898574.03742  24884672.656    24884676.906
        34.800          17.400
 132216795.19916                  25160012.891
        36.400
 16  2 24  1 12  0.0000000  0 13G08G30G21G13G16G10G27G11G07G18G20G15
                                G28
 108291108.089 8  84382701.91246  20607106.047    20607111.234
        51.200          39.700
 115069852.410 7  89664868.75545  21897060.625    21897065.227
        47.800          35.000
 128332865.468 6  99999621.85443  24420932.203    24420933.816
        40.800          22.000
 124068032.458 7  96676204.08243  23609310.195    23609313.273
        42.500          22.800
 124354819.785 7  96899930.87944  23663953.656    23663957.027
        43.300          26.200
 126711016.779 7  98735960.76644  24112322.219    24112329.926
        42.300          25.400
 108690092.634 8  84693557.06346  20683013.164    20683017.297
        51.600          41.700
 126750515.105 6  98766745.70843  24119846.609    24119848.574
        40.900          19.600
 112217323.657 7  87442112.54746  21354239.586    21354242.254
        47.800          36.600
 124338183.177 7  96886905.09644  23660766.258    23660769.395
        43.800          25.300
 129304251.230 6 100756602.93142  24605780.391    24605783.996
        40.200          15.600
 130701629.923 5 101845471.96842  24871703.852    24871710.035
        35.200          16.300
 132115449.436 6                  25140727.047
        37.300
 16  2 24  1 12 30.0000000  0 13G08G30G21G13G16G10G27G11G07G18G20G15
                                G28
 108260534.125 8  84358878.15746  20601288.297    20601293.953
        51.200          39.900
 115034490.393 8  89637313.73145  21890330.344    21890335.883
        48.000          35.000
 128412333.810 6 100061544.23343  24436054.789    24436056.461
        40.900          21.300
 124035991.142 7  96651236.78743  23603215.648    23603215.504
        43.100          22.500
 124465156.379 7  96985907.33244  23684950.898    23684953.918
        43.100          24.300
 126624286.949 7  98668379.80844  24095819.039    24095825.105
        42.300          25.700
 108730771.173 8  84725254.94246  20690753.711    20690757.961
        51.800          41.100
 126629735.825 6  98672632.11043  24096862.688    24096865.180
        41.100          20.100
 112245541.687 8  87464100.70146  21359609.875    21359611.723
        48.000          36.700
 124310299.030 7  96865177.58643  23655460.211    23655462.234
        43.500          23.500
 129379558.021 6 100815283.55642  24620111.188    24620114.852
        40.900          15.600
 130633927.907 5 101792717.21242  24858820.961    24858827.145
        34.300          14.800
 132014158.335 6                  25121452.227
        38.500
 16  2 24  1 13  0.0000000  0 13G08G30G21G13G16G10G27G11G07G18G20G15
                                G28
 108230476.532 8  84335456.53246  20595568.719    20595573.438
        51.200          40.000
 114999723.125 8  89610222.62545  21883715.273    21883719.172
        48.200          35.100
 128492074.557 6 100123679.54843  24451228.328    24451231.289
        41.300          19.600
 124004572.803 7  96626754.86643  23597234.719    23597237.328
        42.000          21.700
 124575656.458 7  97072011.31444  23705978.141    23705981.863
        43.100          26.000
 126537895.422 7  98601062.01843  24079378.203    24079384.387
        43.200          23.800
 108771953.341 8  84757345.27446  20698589.875    20698594.418
        52.100          41.400
 126509096.057 6  98578627.20543  24073905.461    24073908.012
        40.800          21.100
 112274376.127 7  87486568.82346  21365096.141    21365099.160
        47.600          36.300
 124282907.751 6  96843833.68943  23650247.891    23650249.855
        41.800          23.600
 129455286.254 6 100874292.66942  24634520.898    24634524.914
        39.000          15.600
 130566673.013 5 101740311.17242  24846023.313    24846028.090
        34.200          16.300
 131912923.304 6                  25102188.445
        38.800
 16  2 24  1 13 30.0000000  0 13G08G30G21G13G16G10G27G11G07G18G20G15
                                G28
 108200934.298 8  84312435.79646  20589947.383    20589952.805
        50.900          40.400
 114965549.716 7  89583593.79545  21877210.070    21877216.371
        46.600          33.800
 128572083.617 6 100186022.74943  24466454.813    24466456.426
        41.300          19.600
 123973778.033 6  96602758.85143  23591373.297    23591377.488
        41.500          20.900
 124686317.592 7  97158240.45744  23727036.156    23727039.820
        43.300          26.400
 126451845.225 6  98534010.10844  24063001.414    24063009.941
        41.900          25.500
 108813636.488 8  84789825.54746  20706522.734    20706526.691
        52.300          41.600
 126388598.088 6  98484732.78043  24050976.078    24050978.688
        40.300          19.900
 112303826.506 8  87509516.62746  21370701.164    21370703.715
        49.100          36.800
 124256011.696 7  96822876.33844  23645129.945    23645131.559
        43.900          24.800
 129531432.382 6 100933627.34652  24649010.867    24649015.410
        38.600          15.600
 130499866.378 6 101688254.08942  24833309.953    24833315.375
        37.500          15.600
 131811744.987 6                  25082935.438
        39.200
 16  2 24  1 14  0.0000000  0 13G08G30G21G13G16G10G27G11G07G18G20G15
                                G28
 108171911.948 8  84289820.92746  20584425.234    20584430.305
        51.100          40.100
 114931973.377 7  89557430.40845  21870820.500    21870826.625
        46.200          34.000
 128652362.809 6 100248604.87153  24481730.195    24481734.152
        39.700          19.300
 123943608.706 6  96579250.17443  23585631.742    23585636.227
        41.700          22.000
 124797139.211 7  97244594.84844  23748124.180    23748128.723
        42.700          24.300
 126366139.268 7  98467225.97044  24046694.219    24046700.402
        42.700          25.900
 108855821.108 8  84822696.75146  20714549.648    20714554.133
        51.900          41.300
 126268244.883 6  98390951.14243  24028073.711    24028075.734
        40.500          20.600
 112333894.105 8  87532946.12646  21376422.594    21376424.910
        48.200          37.200
 124229609.478 7  96802302.68443  23640105.445    23640107.586
        43.800          23.600
 129607994.762 6 100993286.57142  24663581.516    24663584.477
        38.900          14.800
 130433512.467 6 101636550.14342  24820683.227    24820688.531
        38.500          17.400
 131710625.604 6                  25063692.383
        39.200
 16  2 24  1 14 30.0000000  0 13G08G30G21G13G16G10G27G11G07G18G20G15
                                G28
 108143407.697 8  84267610.10946  20579000.695    20579005.355
        50.800          40.500
 114898992.917 7  89531730.89945  21864546.141    21864551.680
        46.700          33.800
 128732910.175 6 100311370.87743  24497057.797    24497060.465
        41.000          18.600
 123914064.888 7  96556228.99943  23580009.031    23580014.746
        42.200          21.800
 124908118.765 7  97331072.78544  23769243.656    23769247.027
        43.100          26.100
 126280781.174 7  98400713.44444  24030452.203    24030457.508
        42.800          24.500
 108898502.056 8  84855953.62146  20722672.070    20722678.020
        51.500          41.000
 126148037.401 6  98297283.04243  24005198.852    24005200.992
        39.000          20.600
 112364574.281 8  87556852.47846  21382261.281    21382263.598
        48.100          36.700
 124203705.101 7  96782118.06143  23635175.883    23635176.617
        43.900          23.400
 129684969.427 6 101053266.77642  24678229.383    24678231.641
        38.300          16.300
 130367610.915 6 101585198.39842  24808142.336    24808146.645
        38.100          16.300
 131609565.097 6 102552885.98852  25044459.984    25044463.355
        39.400          14.800
 16  2 24  1 15  0.0000000  0 13G08G30G21G13G16G10G27G11G07G18G20G15
                                G28
 108115422.651 8  84245803.50346  20573675.055    20573680.359
        51.200          40.200
 114866613.863 7  89506500.83545  21858384.805    21858389.758
        47.600          34.800
 128813720.504 6 100374331.03353  24512434.813    24512437.129
        41.300          19.300
 123885149.051 7  96533697.05443  23574508.359    23574512.375
        42.500          22.300
 125019255.573 7  97417673.23244  23790392.461    23790394.660
        43.800          24.400
 126195774.327 7  98334474.52444  24014275.406    24014280.828
        42.700          25.800
 108941684.244 8  84889602.27046  20730889.055    20730894.301
        51.600          41.600
 126027979.898 6  98203731.67543  23982352.906    23982355.984
        39.300          20.900
 112395871.466 7  87581240.80545  21388215.430    21388218.391
        46.900          35.400
 124178296.340 7  96762318.20743  23630340.805    23630342.652
        43.900          23.200
 129762355.625 6 101113567.82842  24692954.344    24692958.359
        37.500          16.900
 130302167.051 6 101534203.53642  24795688.094    24795692.813
        38.600          16.300
 131508566.927 6 102474186.02442  25025240.859    25025244.758
        38.800          14.800
 16  2 24  1 15 30.0000000  0 13G08G30G21G13G16G10G27G11G07G18G20G15
                                G28
 108087957.332 8  84224402.05546  20568448.352    20568453.773
        50.400          40.400
 114834833.772 7  89481736.94645  21852337.828    21852342.254
        47.000          34.800
 128894790.254 6 100437502.38743  24527861.344    24527863.309
        40.800          19.600
 123856861.525 6  96511654.77343  23569124.258    23569129.738
        41.300          21.800
 125130546.460 7  97504393.78344  23811569.750    23811572.184
        44.500          25.200
 126111122.959 7  98268513.83444  23998166.148    23998170.633
        42.900          25.300
 108985362.622 8  84923637.53346  20739201.258    20739206.035
        51.000          40.900
 125908074.135 6  98110298.60943  23959535.602    23959537.977
        39.500          20.400
 112427779.628 7  87606104.42945  21394287.203    21394289.754
        47.900          35.900
 124153388.101 7  96742909.73044  23625600.539    23625602.973
        44.100          24.900
 129840150.523 6 101174187.61442  24707758.547    24707761.742
        36.300          15.600
 130237181.008 6 101483565.25742  24783321.484    24783326.672
        38.400          16.300
 131407631.232 6 102395534.77942  25006033.766    25006037.781
        38.800          16.900
 16  2 24  1 16  0.0000000  0 13G08G30G21G13G16G10G27G11G07G18G20G15
                                G28
 108061012.640 8  84203406.29746  20563320.711    20563326.016
        49.400          40.000
 114803656.331 7  89457442.96245  21846405.164    21846409.004
        47.500          35.200
 128976120.195 6 100500876.37543  24543338.344    24543339.547
        41.000          18.300
 123829204.481 6  96490103.93343  23563863.867    23563866.652
        41.300          22.900
 125241989.859 7  97591232.97044  23832777.461    23832779.543
        43.500          25.800
 126026826.052 6  98202828.01644  23982125.328    23982129.344
        41.800          25.800
 109029536.398 8  84958058.53146  20747607.570    20747612.230
        51.600          41.200
 125788323.168 6  98016986.36243  23936747.148    23936749.934
        39.500          21.100
 112460300.383 7  87631445.70145  21400474.305    21400478.203
        46.300          35.300
 124128977.527 7  96723887.53744  23620956.844    23620958.574
        42.100          24.000
 129918351.285 5 101235123.40342  24722637.688    24722641.938
        35.900          15.600
 130172657.790 6 101433288.00542  24771043.039    24771047.816
        38.600          17.800
 131306760.740 6 102316934.47242  24986839.063    24986843.137
        38.700          16.300
 16  2 24  1 16 30.0000000  0 13G08G30G21G13G16G10G27G11G07G18G20G15
                                G28
 108034588.734 8  84182816.42746  20558292.500    20558297.277
        51.200          40.400
 114773081.686 7  89433618.65645  21840586.781    21840591.207
        47.900          34.400
 129057710.230 6 100564454.16343  24558864.094    24558865.355
        41.400          19.000
 123802178.216 7  96469044.52643  23558721.602    23558723.742
        42.300          22.900
 125353584.302 7  97678189.79744  23854012.406    23854015.016
        42.800          25.600
 125942888.746 6  98137422.56943  23966151.336    23966156.055
        41.300          23.000
 109074204.601 8  84992865.04646  20756107.383    20756111.574
        51.000          41.200
 125668728.364 6  97923795.32643  23913989.031    23913992.344
        40.000          20.600
 112493430.049 7  87657260.48245  21406779.680    21406783.168
        46.800          35.800
 124105070.808 7  96705259.57744  23616406.930    23616409.188
        44.700          24.300
 129996954.594 5 101296372.70442  24737598.297    24737600.203
        34.300          15.600
 130108597.275 6 101383370.89742  24758852.047    24758855.945
        39.300          17.800
 131205956.101 6 102238385.44642  24967656.383    24967660.457
        39.600          17.800
 16  2 24  1 17  0.0000000  0 13G08G30G21G13G16G10G27G11G07G18G20G15
                                G28
 108008685.810 8  84162632.32546  20553363.242    20553368.254
        50.900          40.300
 114743110.173 8  89410263.86945  21834884.477    21834887.789
        48.100          35.600
 129139555.247 6 100628230.12643  24574438.047    24574438.430
        40.900          20.100
 123775783.281 7  96448476.89243  23553698.969    23553701.168
        43.000          22.600
 125465327.767 6  97765262.69143  23875275.156    23875279.406
        40.900          22.800
 125859314.206 6  98072300.12344  23950246.086    23950252.328
        40.000          25.300
 109119364.913 8  85028054.85846  20764700.625    20764705.461
        50.900          41.100
 125549292.471 6  97830728.01243  23891261.125    23891265.434
        39.400          21.700
 112527171.086 7  87683552.52545  21413200.039    21413203.879
        46.600          34.800
 124081664.351 7  96687020.85344  23611952.477    23611954.383
        44.700          25.800
 130075958.839 5 101357934.57042  24752631.500    24752633.523
        31.800          15.600
 130045002.952 6 101333817.23342  24746751.758    24746755.715
        40.800          17.400
 131105218.658 6 102159888.76942  24948486.445    24948490.871
        38.800          16.900
 16  2 24  1 17 30.0000000  0 13G08G30G21G13G16G10G27G11G07G18G20G15
                                G28
 107983305.001 8  84142855.11746  20548531.930    20548538.758
        49.100          40.200
 114713745.063 7  89387382.04445  21829293.961    21829300.086
        47.200          35.100
 129221654.663 6 100692204.21543  24590059.969    24590062.461
        41.100          19.900
 123750021.604 6  96428402.79543  23548793.789    23548798.156
        41.900          22.600
 125577218.763 6  97852450.47243  23896567.102    23896571.176
        41.500          22.600
 125776104.726 6  98007462.00843  23934411.195    23934418.199
        39.300          22.600
 109165017.091 8  85063628.17046  20773388.734    20773392.984
        50.600          41.300
 125430018.375 6  97737786.71743  23868564.906    23868568.102
        40.400          21.100
 112561522.004 7  87710320.04646  21419737.820    21419739.316
        47.300          36.000
 124058760.649 7  96669173.85644  23607593.477    23607595.793
        42.000          25.200
 130155361.181 4                  24767740.508
        29.100
 129981877.184 6 101284628.53042  24734737.430    24734742.734
        40.200          16.300
 131004550.146 6 102081445.76142  24929329.789    24929334.098
        38.900          17.800
 16  2 24  1 18  0.0000000  0 13G08G30G21G13G16G10G27G11G07G18G20G15
                                G28
 107958447.242 8  84123485.59246  20543803.719    20543808.262
        49.800          40.800
 114684986.695 7  89364973.05245  21823821.688    21823827.813
        47.400          34.800
 129304003.860 6 100756371.58143  24605730.086    24605732.813
        39.900          19.000
 123724894.161 7  96408822.90844  23544014.086    23544017.105
        42.900          25.200
 125689255.559 6  97939751.91443  23917886.219    23917890.820
        40.800          23.000
 125693262.644 6  97942909.78343  23918646.711    23918652.602
        39.200          23.400
 109211159.148 8  85099583.13846  20782169.094    20782173.285
        50.300          41.100
 125310909.538 6  97644974.53143  23845898.992    23845902.188
        40.100          20.900
 112596479.113 7  87737559.17345  21426389.258    21426391.457
        47.400          35.800
 124036360.055 6  96651718.50244  23603330.227    23603334.535
        41.400          25.800
 130235159.36214                  24782925.453
        28.300
 129919221.817 6 101235806.28143  24722815.266    24722820.160
        41.400          19.300
 130903952.105 6 102003057.72543  24910186.852    24910191.277
        38.800          19.000
 16  2 24  1 18 30.0000000  0 13G08G30G21G13G16G10G27G11G07G18G20G15
                                G28
 107934111.659 8  84104522.83146  20539171.867    20539177.523
        50.300          40.300
 114656834.844 7  89343036.27045  21818466.555    21818470.863
        47.800          34.800
 129386606.929 6 100820738.95343  24621448.328    24621450.762
        39.700          19.000
 123700401.474 6  96389737.80244  23539353.328    23539355.762
        41.100          24.800
 125801435.192 7  98027164.36543  23939235.203    23939238.105
        42.200          22.200
 125610790.704 6  97878645.80444  23902953.352    23902959.535
        40.100          24.700
 109257788.928 8  85135918.06346  20791042.055    20791046.773
        50.600          41.000
 125191967.102 6  97552292.12943  23823265.875    23823268.074
        41.000          19.900
 112632041.867 7  87765269.96745  21433156.461    21433158.895
        47.200          34.900
 124014464.322 7  96634657.27444  23599164.445    23599167.348
        43.700          26.500
 130315350.023 5                  24798185.523
        30.500
 129857038.574 7 101187351.96543  24710981.844    24710985.859
        42.100          18.600
 130803425.354 6 101924725.16642  24891057.547    24891061.211
        38.300          16.900
 16  2 24  1 19  0.0000000  0 13G08G30G21G13G16G10G27G11G07G18G20G15
                                G28
 107910299.712 8  84085968.08946  20534641.289    20534646.066
        50.000          40.600
 114629292.155 8  89321574.35445  21813225.359    21813229.668
        49.100          35.700
 129469455.388 6 100885296.14843  24637216.805    24637216.133
        41.200          19.600
 123676544.237 7  96371147.64644  23534812.555    23534815.105
        43.500          25.500
 125913757.121 6  98114687.65143  23960608.500    23960612.340
        41.400          22.200
 125528693.255 6  97814674.02844  23887331.188    23887337.254
        39.400          24.900
 109304905.813 8  85172632.62046  20800008.102    20800012.410
        50.700          41.300
 125073194.041 6  97459741.74943  23800664.961    23800666.750
        40.600          20.900
 112668211.076 8  87793453.71145  21440040.719    21440041.980
        48.400          35.400
 123993070.700 7  96617985.66044  23595094.586    23595097.957
        42.800          26.000
 130395930.80415                  24813520.922
        33.300
 129795330.488 7 101139267.85343  24699239.703    24699242.371
        42.300          19.300
 130702971.876 6 101846449.76443  24871942.141    24871944.809
        38.300          18.600
 16  2 24  1 19 30.0000000  0 13G08G30G21G13G16G10G27G11G07G18G20G15
                                G28
 107887011.365 8  84067821.49846  20530209.125    20530214.254
        51.500          40.400
 114602359.306 8  89300587.76845  21808100.016    21808104.207
        48.900          35.200
 129552550.772 6 100950046.07943  24653027.945    24653028.797
        40.900          19.600
 123653323.580 7  96353053.64844  23530394.617    23530397.109
        43.500          26.400
 126026219.188 7  98202320.28743  23982009.688    23982014.230
        42.500          22.600
 125446971.626 6  97750994.95343  23871780.250    23871786.258
        40.600          23.600
 109352508.233 8  85209725.80646  20809065.602    20809071.023
        51.200          40.900
 124954592.457 6  97367325.09243  23778094.234    23778097.020
        40.900          21.500
 112704985.372 8  87822109.44945  21447037.734    21447039.758
        48.100          35.900
 123972186.757 7  96601713.18744  23591120.852    23591123.813
        44.100          28.000
 130476898.788 5                  24828926.375
        32.000
 129734099.464 7 101091555.42443  24687587.125    24687589.910
        42.900          19.600
 130602592.537 6 101768232.07343  24852841.102    24852843.535
        38.600          18.600
 16  2 24  1 20  0.0000000  0 12G08G30G21G13G16G10G27G11G07G18G15G28
 107864247.496 8  84050083.81046  20525876.703    20525881.891
        51.600          40.200
 114576035.753 8  89280075.29645  21803090.625    21803095.754
        48.400          35.000
 129635890.838 6 101014986.81043  24668885.672    24668886.641
        40.800          19.300
 123630740.128 7  96335456.19444  23526097.906    23526100.281
        44.500          26.400
 126138819.238 6  98290060.38943  24003437.289    24003441.656
        41.400          22.000
 125365628.743 6  97687610.90044  23856300.047    23856306.348
        39.300          24.300
 109400593.936 8  85247195.36046  20818216.664    20818221.734
        51.800          41.600
 124836165.139 6  97275044.28443  23755556.922    23755561.406
        39.100          20.900
 112742361.325 8  87851233.49245  21454150.141    21454153.219
        48.800          35.700
 123951811.321 7  96585837.67344  23587242.164    23587245.008
        45.300          27.000
 129673347.475 7 101044216.12043  24676028.023    24676029.402
        43.600          19.300
 130502289.549 6 101690073.90043  24833753.281    24833756.184
        38.900          19.900
 16  2 24  1 20 30.0000000  0 12G08G30G21G13G16G10G27G11G07G18G15G28
 107842007.213 8  84032753.66246  20521644.617    20521649.570
        49.400          40.700
 114550324.408 8  89260040.19645  21798197.758    21798202.887
        48.000          34.200
 129719472.140 6 101080115.31043  24684791.570    24684791.719
        40.600          19.600
 123608794.435 7  96318355.58443  23521921.305    23521923.855
        42.600          23.000
 126251556.296 6  98377907.63143  24024889.742    24024894.344
        40.200          21.800
 125284667.919 6  97624524.72143  23840894.109    23840899.648
        40.200          23.800
 109449160.912 8  85285039.63446  20827459.109    20827463.125
        51.500          41.400
 124717913.574 6  97182900.26643  23733054.602    23733058.793
        39.600          21.800
 112780338.202 8  87880825.44346  21461379.477    21461380.035
        49.300          36.700
 123931941.109 7  96570354.76444  23583459.977    23583462.703
        42.200          27.400
 129613076.775 7 100997251.86843  24664558.438    24664559.934
        43.000          19.300
 130402063.717 6 101611975.89443  24814681.242    24814684.086
        38.100          20.600
 16  2 24  1 21  0.0000000  0 12G08G30G21G13G16G10G27G11G07G18G15G28
 107820291.398 8  84015831.95846  20517513.281    20517517.766
        51.000          40.100
 114525227.028 8  89240483.93945  21793422.422    21793426.789
        48.000          35.800
 129803293.761 6 101145430.94843  24700742.594    24700741.629
        39.700          19.600
 123587488.251 7  96301753.35443  23517866.875    23517868.840
        43.300          22.500
 126364428.420 6  98465860.17043  24046368.156    24046372.816
        40.800          21.500
 125204092.138 6  97561738.58444  23825560.938    23825566.418
        40.000          25.600
 109498208.285 8  85323257.84746  20836792.164    20836797.117
        51.500          40.700
 124599840.077 6  97090894.55743  23710587.250    23710589.742
        40.900          21.700
 112818916.172 7  87910885.80246  21468718.133    21468721.504
        47.900          36.000
 123912578.497 7  96555267.03444  23579775.945    23579778.145
        42.500          26.500
 129553290.422 7 100950665.18943  24653181.203    24653183.520
        42.800          19.300
 130301916.701 6 101533939.24442  24795622.430    24795626.445
        38.700          17.800
 16  2 24  1 21 30.0000000  0 12G08G30G21G13G16G10G27G11G07G18G15G28
 107799101.565 8  83999320.25346  20513481.859    20513486.227
        50.900          41.200
 114500745.766 7  89221408.79745  21788761.898    21788766.793
        47.300          34.700
 129887353.555 6 101210931.82943  24716737.266    24716738.996
        39.600          19.300
 123566822.407 7  96285650.18843  23513934.891    23513936.035
        44.100          22.600
 126477432.887 6  98553915.56643  24067872.234    24067876.074
        40.500          20.900
 125123903.935 6  97499254.35844  23810302.164    23810307.176
        41.600          26.000
 109547735.939 8  85361850.74246  20846216.594    20846221.840
        51.400          40.800
 124481949.443 6  96999031.91843  23688153.266    23688155.230
        41.600          21.700
 112858094.304 8  87941413.93345  21476175.508    21476176.301
        48.700          35.400
 123893724.232 6  96540574.83344  23576188.133    23576190.977
        41.800          26.400
 129493990.671 6 100904457.62943  24641895.375    24641898.688
        41.900          20.600
 130201850.426 6 101455965.47043  24776580.594    24776585.254
        38.600          19.300
 16  2 24  1 22  0.0000000  0 12G08G30G21G13G16G10G27G11G07G18G15G28
 107778437.221 8  83983217.97946  20509549.156    20509553.523
        52.200          40.500
 114476876.780 8  89202809.55645  21784219.602    21784225.141
        48.200          34.900
 129971650.161 6 101276617.44742  24732778.109    24732780.016
        37.100          17.400
 123546796.866 7  96270045.84943  23510123.500    23510125.113
        43.800          22.300
 126590568.046 6  98642072.49643  24089402.438    24089404.637
        40.900          21.500
 125044105.487 6  97437073.72144  23795116.805    23795122.285
        40.300          26.800
 109597741.381 8  85400816.14446  20855732.344    20855736.652
        50.700          40.600
 124364243.008 6  96907312.98643  23665753.586    23665756.195
        41.000          22.200
 112897872.183 8  87972410.31846  21483744.023    21483744.992
        48.200          36.200
 123875379.430 7  96526279.38444  23572697.945    23572700.262
        44.500          26.500
 129435178.810 7 100858630.12943  24630703.047    24630707.531
        42.000          20.900
 130101866.383 6 101378055.87943  24757555.000    24757558.078
        37.200          18.300
 16  2 24  1 22 30.0000000  0 12G08G30G21G13G16G10G27G11G07G18G15G28
 107758299.655 8  83967526.44546  20505716.016    20505721.438
        52.000          40.500
 114453625.742 8  89184692.72845  21779795.000    21779799.543
        49.000          35.000
 130056181.009 6 101342485.53043  24748863.797    24748865.469
        38.400          18.600
 123527412.917 7  96254941.45243  23506435.297    23506437.379
        44.000          22.900
 126703833.114 6  98730330.73043  24110957.594    24110959.500
        41.700          21.500
 124964700.791 7  97375200.03844  23780006.305    23780011.961
        42.000          27.200
 109648223.243 8  85440152.64846  20865339.156    20865343.582
        50.800          40.900
 124246723.095 6  96815739.37243  23643389.789    23643392.457
        40.900          22.000
 112938244.977 8  88003808.11356  21491426.633    21491428.539
        48.200          36.100
 123857546.538 7  96512383.30944  23569303.836    23569307.207
        42.800          25.300
 129376857.812 7 100813185.27843  24619605.609    24619609.742
        42.800          20.900
 130001965.596 6 101300211.13542  24738544.570    24738547.707
        37.400          17.400
 16  2 24  1 23  0.0000000  0 12G08G30G21G13G16G10G27G11G07G18G15G28
 107738688.057 8  83952244.72746  20501984.602    20501989.086
        51.300          40.900
 114430989.648 8  89167054.31945  21775488.055    21775491.719
        48.600          35.600
 130140944.330 6 101408534.90043  24764993.547    24764995.922
        37.200          19.000
 123508670.981 7  96240337.35343  23502868.523    23502871.016
        43.900          22.600
 126817225.968 6  98818689.01743  24132535.383    24132537.289
        40.900          21.500
 124885691.535 6  97313634.40244  23764970.055    23764976.414
        40.600          25.500
 109699179.140 8  85479858.36746  20875035.359    20875040.723
        50.900          40.500
 124129391.785 6  96724312.73943  23621062.297    23621065.082
        41.600          21.300
 112979212.466 8  88035730.16945  21499223.188    21499225.152
        48.700          35.600
 123840226.817 6  96498888.17844  23566007.578    23566010.480
        41.500          25.300
 129319029.067 7 100768123.96143  24608600.523    24608604.773
        42.300          22.000
 129902149.097 6 101222432.06443  24719550.430    24719553.391
        36.900          18.300
 16  2 24  1 23 30.0000000  0 12G08G30G21G13G16G10G27G11G07G18G15G28
 107719601.634 8  83937371.54746  20498353.508    20498357.758
        49.800          40.300
 114408970.359 8  89149896.21145  21771297.523    21771302.477
        48.400          35.800
 130225937.434 6 101474763.24243  24781168.008    24781169.445
        37.900          19.000
 123490571.683 6  96226234.04943  23499422.523    23499426.891
        41.600          23.000
 126930745.066 6  98907145.82543  24154135.781    24154139.621
        40.200          21.800
 124807080.596 6  97252379.18944  23750012.875    23750017.184
        41.600          27.100
 109750607.248 8  85519931.73746  20884821.992    20884827.238
        50.300          40.500
 124012251.023 7  96633034.39243  23598772.781    23598773.926
        42.800          23.300
 113020773.813 7  88068114.85945  21507132.180    21507135.727
        46.600          35.400
 123823418.600 7  96485791.56144  23562809.109    23562811.133
        42.500          26.600
 129261694.498 7 100723447.75143  24597691.508    24597694.645
        42.700          22.300
 129802418.425 6 101144719.91143  24700572.367    24700574.801
        37.200          18.300
 16  2 24  1 24  0.0000000  0 12G08G30G21G13G16G10G27G11G07G18G15G28
 107701044.933 8  83922911.94946  20494820.852    20494826.684
        51.900          40.700
 114387571.341 7  89133221.73145  21767224.117    21767230.359
        47.800          35.400
 130311160.537 6 101541170.93243  24797384.070    24797386.855
        38.200          18.300
 123473116.848 7  96212632.92243  23496102.703    23496104.785
        43.700          22.500
 127044387.798 7  98995698.20243  24175762.039    24175764.824
        42.000          21.700
 124728871.861 6  97191437.21344  23735128.344    23735135.055
        40.700          26.400
 109802508.927 8  85560374.55146  20894698.875    20894704.004
        51.400          41.100
 123895304.573 7  96541907.12243  23576518.805    23576519.422
        43.400          22.600
 113062933.432 7  88100967.86046  21515153.766    21515157.195
        47.600          36.000
 123807123.087 7  96473093.87544  23559707.609    23559709.867
        44.700          26.500
 129204858.022 7 100679159.76443  24586875.734    24586879.457
        42.200          21.800
 129702776.856 6 101067077.04942  24681612.391    24681614.414
        36.800          17.800
 16  2 24  1 24 30.0000000  0 12G08G30G21G13G16G10G27G11G07G18G15G28
 107683016.494 8  83908864.07946  20491390.414    20491395.895
        50.300          41.200
 114366792.952 8  89117031.18046  21763270.734    21763275.980
        48.100          36.100
 130396610.748 6 101607755.51142  24813646.133    24813647.629
        37.100          17.800
 123456306.738 7  96199534.12043  23492905.375    23492906.344
        44.100          23.200
 127158152.934 6  99084345.64443  24197410.820    24197413.781
        41.400          19.600
 124651067.443 6  97130810.08344  23720324.180    23720329.484
        41.600          27.600
 109854882.000 8  85601185.08946  20904664.703    20904669.891
        51.100          40.800
 123778555.141 7  96450933.63544  23554302.586    23554303.496
        43.800          24.100
 113105682.363 8  88134278.79845  21523288.750    21523291.242
        48.300          35.800
 123791340.649 7  96460795.54544  23556704.008    23556706.500
        42.000          25.300
 129148521.049 7 100635260.91443  24576155.531    24576158.961
        42.500          23.500
 129603225.233 6 100989504.40442  24662668.078    24662669.340
        36.500          16.900
 16  2 24  1 25  0.0000000  0 12G08G30G21G13G16G10G27G11G07G18G15G28
 107665513.765 8  83895225.28746  20488060.023    20488065.270
        50.600          40.900
 114346633.068 8  89101322.06945  21759434.563    21759440.043
        48.100          34.700
 130482284.969 5 101674514.69143  24829948.359    24829951.027
        34.700          18.300
 123440140.464 7  96186936.97944  23489827.047    23489829.656
        43.000          24.800
 127272038.978 6  99173088.01243  24219082.805    24219084.594
        41.900          19.900
 124573668.649 7  97070498.85844  23705596.031    23705602.039
        42.000          27.400
 109907721.198 8  85642358.10946  20914721.320    20914725.160
        52.400          40.900
 123662003.540 7  96360114.32644  23532123.406    23532123.906
        44.400          24.200
 113149020.795 7  88168049.13545  21531534.945    21531537.906
        47.300          34.900
 123776069.534 7  96448894.66944  23553801.117    23553802.672
        42.600          26.200
 129092684.460 6 100591752.14443  24565528.844    24565533.738
        41.100          22.600
 129503763.219 5 100912001.39242  24643740.133    24643742.215
        35.200          17.400
 16  2 24  1 25 30.0000000  0 12G08G30G21G13G16G10G27G11G07G18G15G28
 107648540.282 8  83881999.30646  20484830.242    20484835.078
        48.700          40.300
 114327094.973 7  89086097.50846  21755717.266    21755722.277
        45.900          36.000
 130568181.073 6 101741446.22543  24846295.469    24846296.086
        36.000          18.300
 123424620.150 7  96174843.24943  23486873.523    23486876.719
        43.100          23.000
 127386044.664 6  99261923.95043  24240776.758    24240779.250
        41.500          19.600
 124496678.219 6  97010505.00444  23690945.609    23690952.379
        41.600          27.500
 109961028.145 8  85683895.79446  20924865.547    20924869.621
        52.000          41.200
 123545654.171 7  96269452.68144  23509982.828    23509983.797
        44.700          25.600
 113192948.774 7  88202279.02545  21539894.484    21539896.566
        46.900          34.600
 123761315.899 7  96437398.32244  23550993.406    23550995.605
        45.700          26.200
 129037350.772 6 100548635.04543  24555000.109    24555003.715
        41.800          22.300
 129404394.291 5 100834571.12042  24624830.602    24624832.742
        35.200          16.300
 16  2 24  1 26  0.0000000  0 12G08G30G21G13G16G10G27G11G07G18G15G28
 107632094.775 8  83869184.73446  20481700.203    20481705.039
        48.800          40.000
 114308177.535 7  89071356.12246  21752117.648    21752122.836
        46.000          36.200
 130654298.849 6 101808551.31642  24862683.703    24862685.258
        36.600          17.800
 123409745.096 6  96163252.24143  23484042.570    23484046.352
        41.400          23.600
 127500166.800 7  99350850.65543  24262493.977    24262496.586
        42.300          19.900
 124420102.157 7  96950835.19644  23676375.234    23676381.008
        42.200          29.200
 110014800.564 8  85725796.44546  20935098.055    20935102.363
        51.800          41.300
 123429508.182 7  96178949.49444  23487880.328    23487882.000
        44.100          24.900
 113237463.890 7  88236966.53545  21548364.586    21548366.844
        46.400          34.700
 123747076.678 7  96426302.55544  23548284.266    23548286.113
        45.500          27.800
 128982522.622 7 100505912.05243  24544566.680    24544569.348
        42.600          23.200
 129305118.902 5 100757213.73142  24605938.328    24605942.168
        35.700          16.900
 16  2 24  1 26 30.0000000  0 12G08G30G21G13G16G10G27G11G07G18G15G28
 107616178.127 8  83856782.21446  20478671.539    20478675.848
        50.900          40.500
 114289882.273 7  89057099.07246  21748637.625    21748642.520
        47.800          36.100
 130740635.418 6 101875826.51743  24879112.227    24879112.785
        36.800          18.300
 123395516.966 7  96152165.41243  23481333.891    23481337.906
        42.600          23.000
 127614403.984 6  99439866.74943  24284232.156    24284234.707
        41.100          20.100
 124343942.634 6  96891490.69644  23661881.016    23661887.258
        41.000          28.900
 110069037.089 8  85768058.80046  20945418.414    20945422.957
        51.700          40.900
 123313568.699 7  96088607.30744  23465815.906    23465818.984
        43.900          24.800
 113282562.849 7  88272107.84145  21556947.984    21556950.594
        46.400          35.700
 123733351.719 7  96415606.56744  23545672.531    23545674.379
        44.900          25.800
 128928201.442 7 100463583.95443  24534229.258    24534232.160
        42.100          22.900
 129205938.976 6 100679930.63242  24587065.156    24587067.824
        36.900          17.400
 16  2 24  1 27  0.0000000  0 12G08G30G21G13G16G10G27G11G07G18G15G28
 107600789.359 8  83844790.81446  20475742.938    20475748.066
        49.200          40.300
 114272212.568 8  89043330.74946  21745274.703    21745279.422
        48.100          36.500
 130827188.229 6 101943270.19143  24895582.797    24895583.590
        36.300          19.300
 123381935.598 7  96141582.60143  23478750.750    23478754.531
        43.200          23.600
 127728754.211 6  99528970.81043  24305992.742    24305995.586
        41.000          20.900
 124268199.303 6  96832469.85744  23647469.766    23647474.777
        41.800          28.700
 110123734.884 8  85810680.23646  20955826.117    20955831.480
        50.500          40.700
 123197837.592 7  95998427.31944  23443793.461    23443796.656
        44.000          26.400
 113328248.829 7  88307707.91946  21565642.086    21565644.285
        47.600          36.000
 123720149.255 7  96405320.89844  23543158.484    23543160.977
        42.700          25.700
 128874389.146 7 100421652.39543  24523987.438    24523991.863
        42.000          23.300
 129106856.062 6 100602723.28442  24568210.648    24568213.375
        38.700          17.800
 16  2 24  1 27 30.0000000  0 12G08G30G21G13G16G10G27G11G07G18G15G28
 107585930.381 8  83833212.17546  20472914.672    20472920.328
        49.200          39.900
 114255168.809 7  89030050.57645  21742029.664    21742034.676
        47.900          35.300
 130913956.305 6 102010881.48243  24912095.055    24912095.613
        36.500          19.000
 123369002.385 7  96131504.75443  23476289.750    23476293.121
        43.300          22.800
 127843216.752 6  99618162.27743  24327773.992    24327776.016
        41.100          21.100
 124192878.443 7  96773778.85644  23633133.188    23633140.719
        42.200          28.100
 110178895.637 8  85853663.33546  20966322.469    20966328.066
        50.800          41.100
 123082318.261 7  95908412.37043  23421810.828    23421813.965
        43.700          23.500
 113374517.155 7  88343761.28145  21574445.703    21574448.313
        47.300          35.400
 123707462.463 7  96395435.86444  23540743.992    23540745.488
        43.000          25.800
 128821088.929 6 100380119.87143  24513845.156    24513849.113
        41.400          22.800
 129007872.118 6 100525593.00643  24549376.602    24549377.512
        37.800          18.600
 16  2 24  1 28  0.0000000  0 12G08G30G21G13G16G10G27G11G07G18G15G28
 107571600.902 8  83822046.37446  20470188.570    20470194.051
        49.500          40.500
 114238748.926 7  89017255.96146  21738905.375    21738910.973
        47.300          36.500
 131000937.131 6 102078658.61843  24928647.547    24928647.520
        36.400          19.300
 123356716.951 7  96121931.69443  23473951.680    23473954.582
        42.800          23.400
 127957788.878 6  99707439.05043  24349576.930    24349579.539
        41.600          22.000
 124117980.101 7  96715416.83844  23618880.586    23618887.707
        42.100          27.300
 110234514.141 8  85897002.46146  20976907.492    20976911.859
        51.300          41.500
 122967012.667 7  95818563.98944  23399868.109    23399871.480
        44.300          24.000
 113421367.448 7  88380268.45345  21583361.063    21583363.379
        47.700          35.800
 123695292.249 7  96385952.90144  23538426.195    23538429.449
        43.900          26.800
 128768302.123 6 100338987.56044  24503801.047    24503803.773
        41.500          24.700
 128908988.105 6 100448540.62043  24530559.211    24530560.824
        39.800          18.600
 16  2 24  1 28 30.0000000  0 12G08G30G21G13G16G10G27G11G07G18G15G28
 107557800.950 8  83811293.17246  20467562.133    20467568.609
        48.700          40.800
 114222954.635 8  89004948.80446  21735901.867    21735904.945
        49.300          36.800
 131088128.801 6 102146599.96643  24945237.578    24945239.484
        36.900          19.300
 123345079.710 7  96112863.64243  23471736.164    23471740.121
        42.500          23.000
 128072469.541 6  99796800.68443  24371397.320    24371402.391
        40.000          21.700
 124043507.041 7  96657386.00644  23604709.703    23604714.832
        42.100          28.800
 110290589.371 8  85940697.25746  20987578.086    20987582.629
        50.800          40.600
 122851923.556 7  95728884.30644  23377968.563    23377970.352
        44.000          25.400
 113468796.619 7  88417226.30445  21592385.961    21592388.336
        46.100          35.000
 123683640.292 7  96376873.85144  23536210.102    23536212.301
        42.400          26.400
 128716029.740 7 100298255.79544  24493854.492    24493856.809
        42.400          24.200
 128810205.536 6 100371567.27243  24511759.805    24511763.469
        38.800          18.300
 16  2 24  1 29  0.0000000  0 12G08G30G21G13G16G10G27G11G07G18G15G28
 107544531.389 8  83800953.32446  20465037.016    20465042.438
        48.800          39.700
 114207788.077 8  88993131.11046  21733015.047    21733018.125
        49.000          36.000
 131175530.291 6 102214704.82842  24961870.258    24961872.809
        36.600          17.800
 123334092.078 6  96104301.90443  23469648.703    23469649.086
        40.900          23.800
 128187257.503 6  99886245.96843  24393242.594    24393245.906
        39.500          22.300
 123969462.317 7  96599688.59744  23590619.555    23590624.332
        42.100          29.000
 110347121.120 8  85984747.87946  20998335.078    20998339.680
        50.800          40.000
 122737053.061 7  95639374.67143  23356108.461    23356111.188
        44.500          23.900
 113516805.040 7  88454635.58745  21601521.367    21601523.742
        46.800          35.200
 123672506.046 7  96368197.32444  23534090.727    23534093.746
        42.000          25.800
 128664275.406 6 100257927.78144  24484005.828    24484007.910
        41.100          25.600
 128711526.662 6 100294674.71942  24492981.930    24492985.066
        38.700          17.800
 16  2 24  1 29 30.0000000  0 12G08G30G21G13G16G10G27G11G07G18G15G28
 107531790.790 8  83791025.41246  20462613.680    20462618.164
        50.400          40.500
 114193248.195 8  88981801.68946  21730247.438    21730251.453
        48.200          36.500
 131263138.573 6 102282970.89143  24978541.141    24978543.223
        37.200          18.300
 123323753.260 6  96096245.62343  23467678.508    23467681.527
        41.700          22.800
 128302149.401 6  99975772.26543  24415105.727    24415109.273
        37.900          21.300
 123895848.665 7  96542327.24344  23576612.227    23576616.594
        42.000          29.400
 110404106.020 8  86029151.23546  21009179.313    21009184.266
        50.600          40.600
 122622403.888 7  95550037.64143  23334292.945    23334293.328
        44.700          22.900
 113565389.595 7  88492493.65845  21610767.445    21610768.766
        47.000          35.200
 123661890.734 7  96359925.28744  23532071.836    23532073.039
        45.000          27.200
 128613039.835 6 100218004.00843  24474255.766    24474258.375
        41.800          22.500
 128612952.109 6 100217863.49843  24474223.711    24474226.848
        37.900          19.300
 16  2 24  1 30  0.0000000  0 12G08G30G21G13G16G10G27G11G07G18G15G28
 107519582.133 8  83781512.42046  20460289.172    20460295.180
        48.000          40.400
 114179336.233 7  88970961.13045  21727599.477    21727603.844
        46.100          35.800
 131350952.326 6 102351396.74743  24995253.797    24995253.828
        38.000          19.000
 123314064.903 6  96088696.19743  23465833.750    23465838.762
        41.300          21.700
 128417145.090 6 100065379.15643  24436988.328    24436991.875
        37.100          20.400
 123822668.391 7  96485302.86244  23562687.563    23562692.047
        42.900          29.900
 110461545.083 8  86073908.84846  21020110.406    21020114.305
        50.900          40.300
 122507979.533 7  95460875.78444  23312518.680    23312520.000
        45.200          24.800
 113614549.733 7  88530799.90445  21620122.648    21620124.145
        46.400          34.900
 123651795.800 7  96352058.60143  23530150.219    23530152.711
        44.000          23.500
 128562326.391 6 100178487.07343  24464604.820    24464608.133
        41.100          22.800
 128514484.644 6 100141135.78243  24455487.219    24455489.242
        39.700          19.300
 16  2 24  1 30 30.0000000  0 12G08G30G21G13G16G10G27G11G07G18G15G28
 107507902.561 8  83772411.62246  20458066.609    20458072.441
        49.900          40.200
 114166052.506 8  88960610.45446  21725071.109    21725076.121
        48.500          36.000
 131438968.986 6 102419981.04043  25012002.367    25012002.633
        37.600          19.300
 123305025.782 6  96081652.67544  23464114.367    23464119.086
        39.700          24.800
 128532241.736 6 100155064.92143  24458889.906    24458894.039
        37.500          20.400
 123749925.293 7  96428619.93244  23548842.922    23548849.867
        42.500          29.400
 110519434.629 8  86119017.64846  21031125.016    21031130.730
        49.800          39.900
 122393781.001 7  95371889.96343  23290786.945    23290788.324
        45.100          23.600
 113664282.834 7  88569552.81445  21629586.086    21629588.168
        47.400          34.700
 123642222.813 7  96344600.12144  23528328.313    23528330.746
        44.100          25.000
 128512135.089 6 100139376.99243  24455053.570    24455056.707
        41.400          23.400
 128416124.319 6 100064491.55243  24436769.914    24436771.293
        39.800          19.600
 16  2 24  1 31  0.0000000  0 12G08G30G21G13G16G10G27G11G07G18G15G28
 107496753.913 8  83763724.45546  20455946.008    20455951.781
        50.600          40.800
 114153396.497 7  88950748.17545  21722663.195    21722668.148
        47.000          35.800
 131527187.049 6 102488722.07243  25028788.617    25028791.051
        37.900          18.600
 123296637.181 7  96075116.15443  23462518.039    23462522.289
        42.100          22.000
 128647438.057 6 100244828.26943  24480809.961    24480815.148
        37.500          20.600
 123677622.095 7  96372280.02444  23535082.305    23535090.246
        42.000          29.000
 110577774.294 8  86164477.45646  21042227.078    21042232.266
        50.700          40.000
 122279811.469 7  95283082.48244  23269098.625    23269100.824
        45.200          25.300
 113714589.125 7  88608752.76045  21639160.258    21639160.465
        47.500          35.300
 123633169.361 7  96337545.80644  23526605.125    23526608.555
        43.900          24.800
 128462469.064 6 100100676.24643  24445602.492    24445606.215
        40.900          23.300
 128317873.533 6  99987932.55443  24418072.813    24418075.188
        38.900          20.400
 16  2 24  1 31 30.0000000  0 12G08G30G21G13G16G10G27G11G07G18G15G28
 107486135.523 8  83755450.58346  20453926.258    20453929.980
        51.400          40.500
 114141371.397 7  88941378.16845  21720374.125    21720379.898
        47.900          35.200
 131615604.649 6 102557618.87143  25045613.398    25045616.125
        38.400          18.300
 123288898.815 7  96069086.25943  23461046.516    23461050.063
        42.900          23.000
 128762731.442 6 100334667.23843  24502750.891    24502753.969
        36.900          20.100
 123605760.472 7  96316284.34444  23521409.688    23521415.109
        42.200          28.700
 110636560.631 8  86210285.02746  21053414.719    21053418.324
        50.800          40.400
 122166073.602 7  95194455.69844  23247456.180    23247457.676
        44.900          24.400
 113765465.690 7  88648397.13145  21648839.969    21648842.285
        46.600          34.700
 123624635.822 7  96330896.26844  23524980.633    23524984.590
        43.200          24.700
 128413329.825 6 100062386.07343  24436250.953    24436255.027
        41.100          23.500
 128219733.385 6  99911459.85443  24399397.633    24399399.715
        39.500          20.100
 16  2 24  1 32  0.0000000  0 12G08G30G21G13G16G10G27G11G07G18G15G28
 107476047.860 8  83747590.26646  20452005.727    20452010.270
        50.200          40.500
 114129976.336 7  88932499.14246  21718206.063    21718211.016
        47.000          36.000
 131704220.092 6 102626669.96143  25062476.078    25062478.746
        37.500          18.300
 123281811.360 6  96063563.49943  23459698.039    23459700.707
        40.200          22.900
 128878121.119 6 100424581.45143  24524710.234    24524711.965
        37.600          19.900
 123534342.909 6  96260634.53644  23507817.773    23507824.836
        41.800          29.800
 110695793.064 8  86256440.21346  21064685.969    21064690.395
        50.100          40.300
 122052569.543 7  95106010.95944  23225856.883    23225858.789
        44.800          24.600
 113816910.216 7  88688483.50345  21658629.086    21658631.754
        45.700          34.700
 123616624.525 6  96324653.90644  23523455.688    23523459.645
        41.100          26.400
 128364719.062 6 100024507.67244  24427000.961    24427004.684
        41.900          24.500
 128121705.905 6  99835074.91543  24380742.117    24380744.668
        39.200          19.900
 16  2 24  1 32 30.0000000  0 12G08G30G21G13G16G10G27G11G07G18G15G28
 107466490.187 8  83740142.64046  20450186.039    20450192.105
        48.700          40.400
 114119210.681 7  88924109.99646  21716156.859    21716162.691
        46.700          36.000
 131793030.621 6 102695872.92643  25079375.906    25079379.102
        38.100          18.600
 123275374.708 6  96058547.80943  23458474.164    23458475.895
        40.600          21.700
 128993605.114 6 100514569.10843  24546685.109    24546687.602
        37.100          20.100
 123463371.953 7  96205332.60145  23494313.281    23494319.582
        42.400          30.600
 110755469.872 8  86302941.78846  21076041.914    21076046.809
        50.800          39.900
 121939302.111 7  95017750.74844  23204302.086    23204303.934
        43.800          25.000
 113868921.176 7  88729011.28845  21668528.711    21668530.676
        46.600          34.700
 123609136.375 6  96318819.84844  23522030.758    23522034.480
        41.300          24.900
 128316638.633 6  99987042.52543  24417851.180    24417855.254
        41.300          22.600
 128023792.169 6  99758778.49743  24362109.117    24362112.254
        37.800          20.100
 16  2 24  1 33  0.0000000  0 12G08G30G21G13G16G10G27G11G07G18G15G28
 107457464.121 8  83733109.44646  20448469.156    20448474.168
        51.400          40.900
 114109075.894 7  88916212.21446  21714229.633    21714234.762
        47.900          36.500
 131882034.922 6 102765226.94143  25096314.289    25096315.551
        37.600          19.000
 123269589.733 7  96054040.03443  23457371.867    23457374.770
        42.200          22.200
 129109181.633 6 100604628.74143  24568678.852    24568681.930
        36.300          18.600
 123392851.241 7  96150381.86644  23480893.320    23480899.270
        42.300          28.500
 110815589.377 8  86349788.24646  21087481.914    21087486.926
        50.300          40.600
 121826274.109 7  94929677.29144  23182791.992    23182795.188
        43.200          24.000
 113921497.933 7  88769980.06245  21678530.781    21678535.207
        44.300          33.700
 123602168.362 7  96313390.12044  23520705.922    23520707.594
        44.900          25.600
 128269090.897 6  99949992.54043  24408802.477    24408806.844
        40.600          22.900
 127925993.913 6  99682572.06143  24343498.344    24343501.949
        38.400          18.600
 16  2 24  1 33 30.0000000  0 12G08G30G21G13G16G10G27G11G07G18G15G28
 107448969.881 8  83726490.77246  20446852.180    20446857.426
        50.300          40.600
 114099574.516 7  88908808.53345  21712420.195    21712426.848
        45.600          35.000
 131971231.227 6 102834730.49443  25113288.500    25113288.883
        37.900          19.300
 123264456.722 6  96050040.28043  23456393.953    23456398.145
        40.500          22.000
 129224849.476 6 100694759.40943  24590690.125    24590693.027
        37.900          20.400
 123322782.960 7  96095783.50844  23467559.586    23467564.891
        42.700          28.100
 110876150.734 8  86396979.12546  21099005.586    21099010.715
        50.400          40.800
 121713487.576 7  94841791.58543  23161331.133    23161332.277
        44.600          23.900
 113974639.215 7  88811388.78045  21688644.297    21688647.551
        45.300          34.400
 123595722.084 7  96308366.16344  23519479.813    23519481.426
        42.000          25.800
 128222077.590 6  99913358.76344  24399857.063    24399861.313
        41.400          25.300
 127828313.564 6  99606457.53343  24324911.859    24324913.648
        38.800          19.000
 16  2 24  1 34  0.0000000  0 12G08G30G21G13G16G10G27G11G07G18G15G28
 107441006.135 8  83720285.44746  20445336.508    20445341.168
        48.500          41.300
 114090706.288 7  88901898.97145  21710732.031    21710738.566
        44.900          34.900
 132060616.844 6 102904381.56443  25130298.445    25130298.770
        39.900          18.600
 123259975.082 6  96046548.11643  23455541.070    23455545.730
        41.000          21.800
 129340605.773 6 100784959.06043  24612718.008    24612720.324
        38.600          21.300
 123253168.800 7  96041538.96244  23454311.891    23454317.195
        42.400          28.600
 110937150.861 8  86444511.77546  21110613.836    21110618.555
        50.800          40.300
 121600945.569 7  94754096.80143  23139913.969    23139915.641
        43.700          23.500
 114028342.427 7  88853235.67245  21698865.359    21698866.270
        45.900          34.800
 123589799.653 7  96303751.12644  23518353.008    23518354.621
        42.800          25.200
 128175599.803 7  99877142.21344  24391013.445    24391016.406
        42.000          24.100
 127730751.664 6  99530435.18343  24306346.547    24306348.453
        39.700          19.300
 16  2 24  1 34 30.0000000  0 12G08G30G21G13G16G10G27G11G07G18G15G28
 107433572.516 8  83714492.90546  20443921.266    20443926.512
        49.600          39.900
 114082467.353 7  88895478.22745  21709165.031    21709171.273
        45.600          35.500
 132150190.449 6 102974179.50643  25147342.820    25147343.379
        39.500          19.600
 123256144.394 6  96043563.22443  23454813.500    23454816.051
        39.800          21.700
 129456449.119 6 100875226.51343  24634762.656    24634764.797
        38.100          22.300
 123184011.863 7  95987650.98144  23441152.172    23441157.125
        43.600          28.100
 110998587.900 8  86492384.78846  21122304.773    21122309.551
        50.300          39.700
 121488649.411 7  94666593.45543  23118544.969    23118546.523
        43.200          22.300
 114082604.403 7  88895517.58645  21709191.023    21709192.695
        46.400          35.100
 123584400.858 7  96299544.56544  23517324.578    23517327.539
        44.600          26.400
 128129659.170 6  99841344.26244  24382270.828    24382274.492
        41.400          25.300
 127633309.932 6  99454506.62443  24287803.469    24287805.727
        39.500          18.600
 16  2 24  1 35  0.0000000  0 12G08G30G21G13G16G10G27G11G07G18G15G28
 107426670.501 8  83709114.97246  20442608.172    20442613.125
        50.100          40.400
 114074862.268 7  88889552.08045  21707718.305    21707724.195
        47.500          35.900
 132239949.033 6 103044121.20643  25164423.438    25164424.758
        38.900          18.600
 123252965.458 7  96041086.08343  23454208.844    23454212.273
        42.600          23.000
 129572378.459 6 100965561.13143  24656824.375    24656824.875
        38.000          21.100
 123115314.689 7  95934121.27144  23428078.273    23428083.988
        42.500          29.200
 111060461.122 8  86540597.79646  21134078.867    21134083.469
        50.200          40.400
 121376602.627 7  94579284.57443  23097223.094    23097224.766
        43.900          23.000
 114137425.029 7  88938234.94645  21719621.102    21719624.414
        45.500          34.100
 123579523.796 7  96295743.58344  23516396.406    23516399.309
        44.300          26.100
 128084258.441 6  99805967.10444  24373632.734    24373635.227
        41.100          25.500
 127535990.304 6  99378673.21243  24269282.719    24269286.148
        38.500          18.600
 16  2 24  1 35 30.0000000  0 12G08G30G21G13G16G10G27G11G07G18G15G28
 107420298.624 8  83704149.67646  20441396.609    20441400.977
        50.700          40.300
 114067889.691 7  88884118.50745  21706391.680    21706397.922
        46.700          35.300
 132329890.562 6 103114205.02443  25181538.461    25181540.660
        38.700          18.300
 123250438.391 6  96039117.03943  23453727.281    23453731.238
        40.300          22.800
 129688391.708 6 101055961.15743  24678898.953    24678901.797
        37.800          22.000
 123047079.074 7  95880951.03244  23415094.469    23415099.129
        43.400          29.600
 111122768.304 8  86589148.93146  21145934.336    21145940.578
        50.100          40.400
 121264807.091 7  94492171.30544  23075949.234    23075950.730
        43.900          25.000
 114192802.128 7  88981386.02145  21730160.133    21730162.684
        47.100          34.800
 123575170.308 7  96292350.85944  23515570.891    23515570.805
        45.000          26.000
 128039399.035 6  99771012.00943  24365094.930    24365098.184
        40.100          22.600
 127438794.236 6  99302936.12943  24250788.016    24250790.391
        38.700          18.300
 16  2 24  1 36  0.0000000  0 13G08G30G21G13G16G10G27G11G07G18G01G15
                                G28
 107414457.733 8  83699598.06846  20440285.406    20440289.715
        50.200          40.400
 114061549.854 7  88879177.38346  21705187.477    21705192.137
        46.600          36.900
 132420014.637 6 103184431.42643  25198688.570    25198690.711
        39.200          18.600
 123248563.066 6  96037655.75643  23453370.859    23453373.938
        41.800          23.200
 129804487.342 6 101146425.36743  24700990.844    24700993.629
        36.500          21.100
 122979307.184 7  95828141.60144  23402199.430    23402202.098
        44.300          29.600
 111185508.132 8  86638037.24446  21157873.617    21157879.215
        49.500          40.600
 121153265.720 7  94405256.08844  23054723.898    23054724.926
        44.000          24.500
 114248733.723 7  89024969.12245  21740803.383    21740806.109
        45.700          34.400
 123571341.301 7  96289367.09144  23514840.992    23514842.664
        42.200          26.500
 130548768.66215                  24842605.813
        33.100
 127995082.690 6  99736480.13943  24356660.188    24356664.613
        39.600          22.900
 127341723.107 6  99227296.31043  24232317.078    24232318.867
        39.100          19.300
 16  2 24  1 36 30.0000000  0 13G08G30G21G13G16G10G27G11G07G18G01G15
                                G28
 107409149.757 8  83695462.06646  20439274.141    20439279.152
        50.700          40.400
 114055846.696 8  88874733.45746  21704102.984    21704107.234
        48.100          36.500
 132510319.800 6 103254799.03243  25215872.805    25215876.527
        37.900          18.300
 123247340.386 7  96036703.01543  23453138.703    23453141.371
        43.000          23.800
 129920663.807 6 101236952.64943  24723096.570    24723102.109
        37.300          20.900
 122912001.417 7  95775694.40944  23389392.195    23389395.742
        43.200          29.900
 111248679.477 8  86687261.69246  21169895.508    21169899.699
        50.200          40.300
 121041981.867 7  94318541.36144  23033546.844    23033548.398
        44.400          25.800
 114305219.188 7  89068983.83645  21751552.414    21751554.730
        46.000          34.400
 123568039.711 7  96286795.35544  23514210.914    23514213.758
        43.900          25.900
 130426644.988 5                  24819366.070
        33.400
 127951311.838 6  99702373.39043  24348330.484    24348335.027
        40.200          23.400
 127244779.853 6  99151756.21843  24213869.727    24213871.574
        39.200          20.400
 16  2 24  1 37  0.0000000  0 13G08G30G21G13G16G10G27G11G07G18G01G15
                                G28
 107404372.254 8  83691739.24646  20438365.438    20438370.977
        50.700          41.100
 114050778.296 7  88870784.37846  21703136.289    21703141.945
        47.600          36.000
 132600803.252 6 103325305.75643  25233091.836    25233095.031
        37.700          18.300
 123246769.844 7  96036258.50143  23453029.688    23453032.883
        42.200          22.500
 130036918.202 6 101327540.50443  24745220.086    24745224.043
        36.700          21.700
 122845167.198 7  95723615.66844  23376672.289    23376677.711
        43.900          29.900
 111312279.724 8  86736820.35746  21181998.203    21182002.453
        50.200          39.400
 120930957.095 7  94232028.60344  23012419.328    23012420.473
        45.100          24.800
 114362255.141 7  89113427.26945  21762404.930    21762408.535
        46.300          34.800
 123565260.444 7  96284629.76844  23513682.039    23513685.059
        43.900          25.900
 130304587.454 5                  24796139.227
        34.800
 127908087.158 6  99668692.20443  24340106.797    24340108.762
        41.300          23.200
 127147964.858 6  99076315.98243  24195446.531    24195448.320
        39.400          21.500
 16  2 24  1 37 30.0000000  0 13G08G30G21G13G16G10G27G11G07G18G01G15
                                G28
 107400126.247 8  83688430.65746  20437557.539    20437563.195
        50.500          40.600
 114046344.588 7  88867329.90546  21702292.594    21702298.660
        46.700          36.400
 132691462.665 6 103395949.34842  25250342.906    25250345.984
        36.700          16.300
 123246851.083 6  96036321.87243  23453046.305    23453047.859
        41.900          22.600
 130153250.270 6 101418188.86543  24767356.539    24767361.141
        37.900          19.900
 122778805.143 7  95671904.88144  23364044.500    23364049.570
        43.400          28.800
 111376307.767 8  86786712.56746  21194183.375    21194186.512
        51.700          40.400
 120820194.268 7  94145719.88544  22991342.484    22991343.102
        45.200          25.100
 114419839.466 7  89158297.77145  21773365.664    21773367.336
        46.600          34.700
 123563005.389 7  96282872.32544  23513254.008    23513256.148
        44.000          25.300
 130182598.921 6                  24772926.805
        37.300
 127865410.392 6  99635437.90244  24331985.789    24331987.930
        41.800          26.000
 127051279.640 6  99000976.92443  24177048.141    24177050.516
        39.500          20.900
 16  2 24  1 38  0.0000000  0 13G08G30G21G13G16G10G27G11G07G18G01G15
                                G28
 107396411.165 8  83685535.92146  20436850.469    20436856.125
        49.500          40.100
 114042544.520 7  88864368.79945  21701570.031    21701575.219
        46.000          35.500
 132782296.042 5 103466728.50342  25267627.828    25267631.082
        35.900          15.600
 123247583.496 7  96036892.58143  23453183.719    23453188.145
        42.400          23.000
 130269658.232 6 101508896.66343  24789508.781    24789512.680
        38.100          20.600
 122712918.069 7  95620564.57044  23351505.734    23351511.801
        42.300          29.300
 111440760.913 8  86836935.89246  21206447.586    21206451.602
        49.100          40.000
 120709695.155 7  94059616.63244  22970313.656    22970316.207
        44.300          26.900
 114477970.995 7  89203594.76445  21784427.086    21784428.758
        46.100          34.600
 123561275.516 7  96281524.53644  23512925.164    23512926.367
        44.500          24.500
 130060681.210 6 101346023.49952  24749726.406    24749734.348
        37.300          16.300
 127823282.668 7  99602611.31244  24323969.305    24323971.152
        42.100          24.700
 126954725.945 6  98925740.33443  24158674.320    24158676.402
        38.500          20.400
 16  2 24  1 38 30.0000000  0 13G08G30G21G13G16G10G27G11G07G18G01G15
                                G28
 107393226.684 8  83683054.54046  20436244.594    20436250.426
        49.500          40.200
 114039381.275 7  88861904.79845  21700967.703    21700971.895
        46.500          35.700
 132873301.398 6 103537641.71042  25284945.438    25284948.105
        36.100          15.600
 123248967.466 6  96037970.98343  23453449.469    23453450.438
        41.600          22.900
 130386139.409 6 101599661.51843  24811675.117    24811677.668
        37.900          20.900
 122647508.436 7  95569596.47644  23339059.328    23339064.223
        42.900          28.900
 111505637.052 8  86887488.35646  21218792.898    21218797.266
        49.500          39.700
 120599463.009 7  93973721.51944  22949337.805    22949340.473
        45.000          26.900
 114536649.590 7  89249319.04245  21795592.680    21795593.824
        45.600          33.600
 123560067.448 6  96280581.80644  23512695.094    23512697.762
        40.900          24.600
 129938836.684 6 101251079.55642  24726541.273    24726547.691
        38.600          16.300
 127781705.836 6  99570213.96643  24316054.406    24316059.008
        40.300          23.800
 126858305.542 6  98850607.62543  24140327.109    24140327.258
        39.200          20.400
 16  2 24  1 39  0.0000000  0 13G08G30G21G13G16G10G27G11G07G18G01G15
                                G28
 107390572.697 8  83680986.36446  20435738.680    20435744.922
        49.300          40.400
 114036849.140 7  88859930.59245  21700485.656    21700490.961
        47.300          35.800
 132964477.456 5 103608688.12742  25302294.266    25302298.164
        35.800          14.800
 123251002.608 7  96039556.77743  23453835.898    23453838.039
        42.300          22.000
 130502691.468 6 101690481.12743  24833853.992    24833857.539
        37.500          20.100
 122582577.951 7  95519001.70044  23326702.641    23326708.238
        42.000          29.300
 111570935.765 8  86938370.49146  21231218.578    21231223.590
        49.900          39.700
 120489499.901 7  93888035.90944  22928412.570    22928414.477
        45.000          27.000
 114595870.565 7  89295465.46945  21806861.883    21806862.852
        45.900          33.700
 123559387.996 7  96280052.82844  23512565.430    23512568.449
        43.800          26.200
 129817067.901 6 101156194.63442  24703369.414    24703375.598
        39.400          17.800
 127740681.639 6  99538247.14844  24308248.852    24308252.574
        41.200          25.000
 126762019.930 6  98775579.93843  24122005.602    24122005.398
        40.500          21.100
 16  2 24  1 39 30.0000000  0 13G08G30G21G13G16G10G27G11G07G18G01G15
                                G28
 107388449.289 8  83679331.70046  20435335.031    20435340.805
        49.200          40.900
 114034955.659 7  88858455.79845  21700125.656    21700130.023
        47.300          35.800
 133055821.536 5 103679865.31042  25319677.281    25319681.004
        35.500          14.800
 123253688.892 6  96041650.02143  23454345.797    23454349.109
        41.000          21.800
 130619314.179 6 101781356.07143  24856046.500    24856049.285
        37.800          19.600
 122518128.732 6  95468781.75644  23314436.836    23314443.723
        41.100          29.500
 111636654.914 8  86989580.28546  21243725.313    21243729.504
        49.500          39.500
 120379808.916 7  93802562.57044  22907538.125    22907540.676
        44.600          27.100
 114655632.024 7  89342032.66845  21818233.398    21818235.598
        46.000          34.100
 123559233.126 7  96279932.58744  23512536.484    23512538.039
        43.800          25.700
 129695377.698 6 101061371.18542  24680212.070    24680218.664
        38.900          17.800
 127700211.274 6  99506711.75744  24300549.203    24300550.699
        41.700          25.700
 126665870.506 6  98700658.34043  24103706.945    24103707.680
        39.900          20.900
 16  2 24  1 40  0.0000000  0 13G08G30G21G13G16G10G27G11G07G18G01G15
                                G28
 107386857.185 8  83678091.18246  20435031.977    20435037.691
        50.400          40.700
 114033695.951 7  88857473.85946  21699886.648    21699891.016
        47.200          36.200
 133147331.794 5 103751172.04342  25337091.375    25337094.277
        35.400          15.600
 123257026.523 6  96044250.81543  23454980.859    23454984.230
        41.100          21.300
 130736006.023 6 101872285.27243  24878251.797    24878255.695
        37.700          19.000
 122454164.163 7  95418939.61644  23302265.352    23302270.891
        42.100          29.000
 111702792.713 8  87041116.24046  21256309.641    21256314.828
        49.700          39.500
 120270392.235 7  93717302.79244  22886718.523    22886719.785
        46.000          26.800
 114715932.953 7  89389020.34745  21829708.273    21829710.766
        45.900          34.400
 123559602.439 7  96280220.15344  23512607.430    23512608.867
        44.600          26.500
 129573768.258 6 100966610.66943  24657070.953    24657077.605
        38.500          19.000
 127660297.019 6  99475609.69844  24292952.047    24292954.656
        41.500          26.000
 126569859.385 6  98625844.52043  24085434.734    24085437.402
        38.800          20.100
 16  2 24  1 40 30.0000000  0 13G08G30G21G13G16G10G27G11G07G18G01G15
                                G28
 107385795.550 8  83677263.94646  20434829.469    20434835.477
        49.800          40.800
 114033073.152 7  88856988.85245  21699766.172    21699772.004
        47.400          35.400
 133239006.835 5 103822607.20042  25354536.672    25354539.164
        35.900          13.900
 123261014.985 7  96047358.68543  23455739.508    23455743.055
        42.000          22.000
 130852763.925 6 101963265.75743  24900469.703    24900473.309
        38.800          19.000
 122390685.840 6  95369476.06244  23290184.883    23290191.945
        41.800          29.300
 111769346.540 8  87092975.90646  21268975.820    21268980.480
        49.600          40.200
 120161252.585 7  93632258.90244  22865950.094    22865950.828
        46.600          28.000
 114776771.588 7  89436427.16645  21841285.602    21841288.094
        47.000          34.000
 123560498.899 7  96280919.40844  23512777.359    23512779.148
        44.200          25.700
 129452241.579 6 100871914.35343  24633945.375    24633952.672
        39.200          20.900
 127620940.079 6  99444941.90144  24285463.016    24285465.684
        41.800          24.600
 126473988.227 6  98551139.81843  24067191.203    24067193.402
        39.300          20.400
 16  2 24  1 41  0.0000000  0 13G08G30G21G13G16G10G27G11G07G18G01G15
                                G28
 107385264.027 8  83676849.78546  20434728.859    20434733.871
        49.500          40.500
 114033085.284 7  88856998.26045  21699768.781    21699774.848
        46.000          35.200
 133330844.148 5 103894168.74342  25372013.922    25372015.184
        35.700          13.900
 123265654.026 6  96050973.50843  23456624.227    23456626.133
        41.500          22.200
 130969586.623 6 102054296.60843  24922700.234    24922703.723
        38.800          19.300
 122327696.500 7  95320393.72644  23278200.359    23278204.609
        43.000          29.900
 111836314.615 8  87145157.97546  21281719.883    21281724.777
        49.100          38.900
 120052392.784 7  93547433.35244  22845234.398    22845235.250
        46.100          26.600
 114838145.487 7  89484251.11545  21852964.750    21852967.066
        46.100          33.800
 123561918.613 7  96282025.53744  23513047.039    23513049.180
        44.800          25.600
 129330800.358 6 100777284.72243  24610834.289    24610842.289
        38.400          21.100
 127582141.805 6  99414709.44744  24278081.430    24278083.160
        41.800          25.300
 126378258.125 6  98476544.96643  24048976.109    24048976.199
        40.800          21.100
 16  2 24  1 41 30.0000000  0 13G08G30G21G13G16G10G27G11G07G18G01G15
                                G28
 107385260.071 8  83676845.42246  20434729.859    20434734.637
        50.800          40.500
 114033735.200 7  88857505.81145  21699892.813    21699897.355
        47.500          35.700
 133422841.931 5 103965855.33452  25389520.023    25389520.875
        34.800          15.600
 123270943.387 6  96055095.12243  23457629.203    23457632.164
        41.500          22.800
 131086472.358 6 102145376.64443  24944941.227    24944945.887
        38.800          18.600
 122265197.820 7  95271693.55144  23266307.016    23266311.617
        43.800          29.600
 111903697.447 8  87197664.20946  21294542.219    21294547.465
        50.000          39.500
 119943814.177 7  93462826.80944  22824570.453    22824573.473
        44.600          26.900
 114900052.443 7  89532490.50345  21864746.250    21864747.277
        47.700          34.000
 123563865.342 7  96283543.22844  23513416.641    23513418.547
        45.000          24.800
 129209446.473 6 100682723.04843  24587741.500    24587749.617
        38.700          22.300
 127543903.606 7  99384913.47144  24270804.727    24270806.398
        42.100          25.400
 126282670.570 6  98402061.17543  24030784.617    24030786.934
        40.500          20.900
 16  2 24  1 42  0.0000000  0 13G08G30G21G13G16G10G27G11G07G18G01G15
                                G28
 107385788.673 8  83677256.92646  20434830.742    20434835.988
        49.700          41.400
 114035019.702 7  88858506.85645  21700136.750    21700141.410
        45.800          35.300
 133514999.09515 104037666.03252  25407057.219    25407059.594
        33.800          13.900
 123276883.142 7  96059723.45443  23458760.477    23458762.910
        42.800          21.800
 131203419.976 6 102236504.78742  24967195.891    24967200.141
        38.000          17.400
 122203193.129 7  95223378.16044  23254508.500    23254512.691
        44.100          29.400
 111971490.401 8  87250488.90946  21307443.188    21307448.375
        49.300          39.200
 119835520.527 7  93378442.30344  22803964.703    22803965.379
        44.800          28.500
 114962491.287 7  89581144.29045  21876627.875    21876628.844
        46.500          33.800
 123566335.562 7  96285467.54544  23513886.664    23513889.391
        44.100          25.700
 129088183.722 6 100588232.45343  24564666.070    24564674.539
        39.000          21.300
 127506227.709 6  99355555.63444  24263635.023    24263636.285
        41.700          25.100
 126187228.254 6  98327690.55443  24012623.281    24012625.070
        40.800          22.200
 16  2 24  1 42 30.0000000  0 13G08G30G21G13G16G10G27G11G07G18G01G15
                                G28
 107386849.994 8  83678084.65646  20435031.969    20435037.566
        49.400          40.400
 114036939.571 7  88860002.15746  21700502.727    21700507.621
        45.800          36.200
 133607314.65415 104109600.44252  25424625.172    25424625.906
        34.800          16.300
 123283473.873 7  96064859.06543  23460013.492    23460016.629
        42.200          22.600
 131320428.505 6 102327680.42542  24989462.945    24989465.613
        38.900          16.900
 122141685.689 7  95175450.30744  23242802.016    23242807.613
        43.000          28.500
 112039698.854 8  87303639.69146  21320421.414    21320426.777
        49.900          38.700
 119727515.260 7  93294282.51144  22783411.867    22783412.719
        45.300          27.600
 115025458.116 7  89630208.23745  21888609.648    21888612.082
        45.600          33.400
 123569334.264 7  96287804.67444  23514455.555    23514459.102
        44.000          24.200
 128967014.944 6 100493815.12843  24541608.859    24541617.035
        39.000          22.300
 127469116.401 7  99326637.74044  24256573.969    24256574.938
        42.700          25.800
 126091933.266 6  98253434.75943  23994488.930    23994491.129
        41.900          22.500
 16  2 24  1 43  0.0000000  0 13G08G30G21G13G16G10G27G11G07G18G01G15
                                G28
 107388441.813 8  83679325.91346  20435334.102    20435339.348
        48.200          40.800
 114039496.993 7  88861994.95246  21700990.000    21700994.543
        47.400          36.800
 133699785.33015 104181655.65452  25442221.984    25442221.078
        33.200          13.900
 123290714.120 7  96070500.70143  23461392.453    23461394.477
        43.500          22.600
 131437495.814 6 102418901.78942  25011739.172    25011743.129
        38.800          16.900
 122080676.827 7  95127910.92544  23231193.234    23231198.129
        43.600          29.200
 112108313.870 8  87357106.42746  21333479.094    21333483.520
        49.700          39.500
 119619799.591 7  93210348.21844  22762913.148    22762915.230
        45.300          27.500
 115088952.105 7  89679682.93745  21900693.383    21900696.344
        44.500          34.000
 123572856.256 7  96290548.30544  23515128.273    23515130.941
        42.000          26.200
 128845941.573 6 100399472.06543  24518570.445    24518577.508
        39.100          22.600
 127432569.660 6  99298159.62944  24249618.852    24249619.820
        41.400          24.200
 125996786.514 7  98179294.47743  23976383.375    23976385.223
        42.100          22.300
 16  2 24  1 43 30.0000000  0 13G08G30G21G13G16G10G27G11G07G18G01G15
                                G28
 107390560.539 8  83680976.71146  20435736.547    20435742.906
        50.700          41.000
 114042688.710 8  88864481.54946  21701597.375    21701602.621
        48.800          37.000
 133792408.03915 104253829.10952  25459848.219    25459847.957
        32.200          13.900
 123298602.564 7  96076647.47043  23462893.148    23462896.168
        42.800          22.200
 131554618.505 6 102510166.23142  25034027.969    25034030.871
        39.000          15.600
 122020167.996 7  95080761.31845  23219679.719    23219683.207
        44.600          31.200
 112177333.607 8  87410888.15746  21346612.508    21346617.754
        50.100          38.700
 119512374.120 7  93126639.67844  22742472.180    22742472.563
        46.000          28.000
 115152973.090 7  89729569.64045  21912875.484    21912878.270
        46.700          33.600
 123576903.477 7  96293701.64344  23515899.070    23515901.504
        43.600          26.400
 128724965.288 6 100305204.79243  24495549.758    24495556.410
        39.800          23.300
 127396588.179 6  99270121.83944  24242770.305    24242772.563
        40.800          24.400
 125901788.749 7  98105270.29843  23958306.828    23958307.797
        42.400          22.900
 16  2 24  1 44  0.0000000  0 13G08G30G21G13G16G10G27G11G07G18G01G15
                                G28
 107393208.592 8  83683039.97946  20436242.313    20436247.148
        51.200          40.600
 114046517.359 8  88867464.84046  21702325.789    21702330.801
        49.300          36.600
 133885181.94015                  25477497.664
        30.700
 123307140.257 7  96083300.34243  23464517.008    23464520.496
        42.800          22.000
 131671795.852 6 102601473.34742  25056327.984    25056328.895
        39.600          16.900
 121960161.870 7  95034003.28645  23208260.109    23208264.828
        43.900          30.600
 112246757.849 8  87464985.00446  21359823.383    21359827.516
        50.000          39.200
 119405242.376 7  93043159.44844  22722086.141    22722087.930
        44.700          28.000
 115217517.828 7  89779864.77745  21925158.008    21925160.090
        46.600          33.500
 123581475.765 7  96297248.82654  23516769.125    23516771.617
        45.000          25.200
 128604089.197 6 100211015.57143  24472547.500    24472554.855
        38.600          21.300
 127361174.467 6  99242526.63243  24236031.867    24236033.832
        41.300          22.900
 125806942.319 7  98031364.00743  23940256.633    23940259.359
        42.500          22.600
 16  2 24  1 44 30.0000000  0 13G08G30G21G13G16G10G27G11G07G18G01G15
                                G28
 107396386.367 8  83685516.29046  20436846.719    20436851.320
        51.200          40.900
 114050980.936 8  88870942.57646  21703174.734    21703180.977
        48.200          36.300
 133978105.23615                  25495181.398
        30.300
 123316326.108 7  96090458.26243  23466265.430    23466268.918
        43.000          23.600
 131789026.324 6 102692821.72342  25078635.719    25078636.453
        38.600          16.300
 121900660.888 7  94987638.92045  23196937.805    23196942.406
        43.700          30.400
 112316584.847 8  87519395.77446  21373111.242    21373115.668
        50.600          39.700
 119298408.758 7  92959912.13744  22701756.000    22701758.609
        44.200          27.500
 115282580.973 7  89830562.42545  21937538.883    21937541.258
        45.400          32.200
 123586575.172 7  96301222.81444  23517739.148    23517742.227
        44.300          24.400
 128483315.230 6 100116905.77243  24449565.188    24449572.191
        37.900          21.500
 127326329.531 6  99215374.58144  24229402.039    24229402.949
        41.700          24.200
 125712248.746 6  97957576.85843  23922236.664    23922240.035
        41.300          22.300
 16  2 24  1 45  0.0000000  0 13G08G30G21G13G16G10G27G11G07G18G01G15
                                G28
 107400092.305 8  83688404.13046  20437550.672    20437556.445
        50.300          40.800
 114056081.136 7  88874917.08046  21704144.344    21704151.523
        47.800          36.300
 134071175.31914                  25512894.625
        29.600
 123326159.073 7  96098120.37743  23468134.969    23468139.688
        43.200          22.800
 131906307.729 6 102784210.00242  25100952.414    25100954.262
        37.800          14.800
 121841666.962 7  94941669.75145  23185711.391    23185716.402
        42.900          30.200
 112386811.999 8  87574118.28646  21386474.336    21386478.996
        49.700          39.200
 119191875.817 7  92876899.87844  22681483.633    22681485.246
        45.000          26.800
 115348164.156 7  89881666.65545  21950019.641    21950022.016
        45.700          33.500
 123592200.373 7  96305607.16444  23518810.273    23518810.949
        45.300          26.000
 128362646.369 6 100022878.20843  24426602.227    24426609.465
        38.700          21.100
 127292054.195 6  99188666.37944  24222879.625    24222880.770
        41.800          24.300
 125617709.004 7  97883909.56344  23904246.680    23904248.996
        42.300          24.200
 16  2 24  1 45 30.0000000  0 13G08G30G21G13G16G10G27G11G07G18G01G15
                                G28
 107404327.065 8  83691704.01146  20438357.875    20438362.945
        51.500          41.300
 114061816.596 7  88879386.27645  21705235.750    21705241.699
        47.500          35.800
 134164390.62414                  25530635.156
        28.300
 123336639.269 7  96106286.76844  23470131.930    23470135.242
        44.300          25.600
 132023639.054 6 102875637.11542  25123279.531    25123282.258
        37.200          15.600
 121783182.393 7  94896097.29045  23174580.930    23174587.348
        43.300          30.500
 112457438.364 8  87629151.83246  21399915.703    21399919.309
        50.800          39.200
 119085645.471 7  92794123.59044  22661268.938    22661269.496
        45.700          27.700
 115414265.072 7  89933174.55245  21962596.891    21962600.320
        45.000          32.400
 123598349.016 7  96310398.37444  23519979.508    23519981.473
        44.600          27.000
 128242084.725 6  99928933.96143  24403660.203    24403666.680
        38.400          20.400
 127258350.701 6  99162403.77343  24216465.180    24216467.906
        41.000          22.600
 125523325.852 7  97810364.28543  23886286.922    23886288.184
        42.200          23.000
 16  2 24  1 46  0.0000000  0 12G08G30G13G16G10G27G11G07G18G01G15G28
 107409090.438 8  83695415.86946  20439263.250    20439268.496
        50.900          41.000
 114068187.453 8  88884350.46446  21706449.039    21706454.930
        48.000          36.500
 123347766.730 7  96114957.50843  23472248.609    23472251.922
        43.600          22.800
 132141018.922 6 102967102.12942  25145616.523    25145618.723
        37.300          15.600
 121725209.913 7  94850923.81045  23163550.141    23163555.563
        44.200          31.200
 112528462.083 8  87684494.93246  21413430.227    21413435.004
        49.600          39.400
 118979718.866 7  92711583.43344  22641111.789    22641112.289
        45.800          28.900
 115480879.222 7  89985081.84645  21975271.742    21975276.227
        44.300          32.100
 123605022.911 7  96315599.17744  23521247.648    23521250.785
        43.100          24.700
 128121633.141 6  99835075.50143  24380738.211    24380745.449
        37.100          19.000
 127225220.162 6  99136587.48743  24210160.633    24210163.594
        41.400          23.300
 125429100.839 7  97736942.21643  23868354.992    23868357.777
        42.200          22.600
 16  2 24  1 46 30.0000000  0 12G08G30G13G16G10G27G11G07G18G01G15G28
 107414382.008 8  83699539.18846  20440270.398    20440275.410
        49.000          40.200
 114075195.041 7  88889811.29445  21707781.500    21707787.508
        45.100          34.800
 123359540.816 7  96124132.10643  23474488.359    23474493.313
        43.800          22.600
 132258445.281 6 103058603.18842  25167961.805    25167963.711
        36.600          15.600
 121667752.369 7  94806151.79145  23152616.578    23152621.180
        44.700          31.800
 112599882.110 8  87740147.01746  21427021.492    21427025.273
        49.700          39.700
 118874099.648 7  92629282.81844  22621012.734    22621014.055
        45.500          28.200
 115548005.735 7  90037388.19145  21988047.078    21988049.688
        45.900          32.800
 123612221.524 7  96321208.54644  23522618.391    23522620.941
        42.400          26.200
 128001293.785 6  99741304.23443  24357839.547    24357846.434
        37.000          20.100
 127192663.979 6  99111218.66743  24203964.750    24203969.234
        39.500          22.200
 125335035.847 7  97663644.78843  23850456.000    23850457.027
        42.000          21.500
 16  2 24  1 47  0.0000000  0 12G08G30G13G16G10G27G11G07G18G01G15G28
 107420202.023 8  83704074.53746  20441377.398    20441382.762
        50.900          41.100
 114082837.015 7  88895766.00646  21709237.305    21709242.258
        47.300          36.400
 123371960.424 7  96133809.65344  23476853.320    23476856.516
        44.300          25.100
 132375916.636 6 103150139.32842  25190316.000    25190318.082
        36.300          15.600
 121610811.019 7  94761781.97145  23141779.078    23141785.965
        43.000          31.100
 112671695.629 8  87796105.61646  21440687.594    21440690.496
        50.600          38.700
 118768790.540 7  92547223.89244  22600973.070    22600974.273
        45.700          28.400
 115615642.682 7  90090092.43745  22000918.047    22000920.715
        46.500          33.000
 123619943.181 6  96327224.60544  23524088.133    23524091.387
        41.300          24.900
 127881069.632 6  99647622.91143  24334962.484    24334968.668
        37.300          19.300
 127160683.865 6  99086299.13143  24197881.281    24197882.953
        39.900          22.200
 125241132.366 7  97590473.24943  23832586.711    23832588.734
        42.000          22.300
 16  2 24  1 47 30.0000000  0 12G08G30G13G16G10G27G11G07G18G01G15G28
 107426548.046 8  83709019.35446  20442583.750    20442590.344
        50.500          40.400
 114091107.853 7  88902208.12146  21710813.227    21710818.121
        47.800          36.000
 123385024.051 7  96143989.04143  23479339.594    23479341.441
        43.700          23.000
 132493429.538 5 103241707.79242  25212677.563    25212679.527
        35.300          16.900
 121554386.353 7  94717814.33444  23131041.406    23131048.879
        42.700          29.800
 112743900.055 8  87852368.76646  21454427.430    21454430.625
        49.500          38.400
 118663792.747 7  92465407.48544  22580992.148    22580994.113
        44.900          28.900
 115683785.773 7  90143190.78045  22013886.508    22013887.828
        47.500          33.600
 123628190.452 7  96333651.50743  23525657.977    23525661.230
        42.200          23.800
 127760961.874 6  99554032.31043  24312107.227    24312113.117
        37.300          19.600
 127129279.472 6  99061828.12243  24191904.422    24191906.797
        39.900          21.800
 125147391.054 6  97517428.15443  23814747.203    23814750.340
        41.600          22.500
 16  2 24  1 48  0.0000000  0 12G08G30G13G16G10G27G11G07G18G01G15G28
 107433422.796 8  83714376.58446  20443893.414    20443898.016
        50.600          41.300
 114100021.879 7  88909155.35445  21712508.172    21712513.711
        47.500          35.200
 123398733.144 7  96154671.43443  23481948.742    23481950.531
        43.100          22.800
 132610984.974 5 103333309.38342  25235047.492    25235049.398
        34.600          14.800
 121498482.985 7  94674252.96544  23120404.328    23120411.039
        43.400          29.800
 112816495.073 8  87908936.09246  21468240.555    21468245.449
        48.500          38.100
 118559110.494 7  92383836.83344  22561071.211    22561073.293
        44.500          27.700
 115752436.218 7  90196684.87045  22026948.898    22026950.453
        47.400          33.200
 123636962.108 6  96340486.65244  23527325.688    23527329.820
        40.900          26.500
 127640975.487 6  99460536.64342  24289273.531    24289280.242
        36.900          16.900
 127098453.931 6  99037808.16543  24186039.344    24186040.488
        40.400          22.200
 125053815.089 7  97444511.89543  23796940.000    23796943.723
        42.400          22.600
 16  2 24  1 48 30.0000000  0 11G08G30G13G10G27G11G07G18G01G15G28
 107440823.455 8  83720143.33646  20445302.609    20445306.859
        49.800          40.800
 114109565.726 7  88916591.08445  21714324.266    21714330.625
        44.700          35.300
 123413085.704 7  96165855.22144  23484678.742    23484682.172
        42.400          24.400
 121443102.537 7  94631099.24844  23109865.727    23109872.555
        43.100          29.400
 112889478.061 8  87965805.82446  21482129.047    21482134.293
        48.700          38.100
 118454744.795 7  92302512.85444  22541211.156    22541212.652
        44.500          27.600
 115821589.474 7  90250570.76945  22040108.883    22040110.262
        47.100          34.000
 123646257.464 7  96347729.79144  23529095.531    23529098.551
        43.100          27.500
 127521110.578 6  99367135.57543  24266463.070    24266470.719
        36.100          18.600
 127068207.198 6  99014239.37643  24180284.875    24180284.789
        41.900          22.300
 124960405.066 7  97371724.92843  23779165.266    23779167.992
        42.100          22.300
 16  2 24  1 49  0.0000000  0 11G08G30G13G10G27G11G07G18G01G15G28
 107448750.978 8  83726320.68546  20446811.094    20446815.520
        50.300          41.300
 114119744.323 7  88924521.58245  21716261.039    21716268.629
        46.000          34.800
 123428081.727 7  96177540.42444  23487532.398    23487536.414
        43.100          24.000
 121388246.999 7  94588354.44845  23099426.469    23099434.234
        42.400          31.400
 112962847.619 7  88022976.66946  21496091.414    21496095.137
        47.800          37.900
 118350698.930 7  92221437.96944  22521410.570    22521413.355
        44.400          27.400
 115891244.285 7  90304847.52345  22053362.930    22053365.305
        45.800          32.400
 123656076.337 6  96355380.66244  23530963.727    23530967.625
        41.400          26.400
 127401370.665 5  99273831.92642  24243675.945    24243684.121
        35.200          16.300
 127038540.482 6  98991122.25443  24174638.531    24174640.145
        41.400          22.900
 124867163.615 7  97299069.23843  23761423.211    23761424.648
        43.400          23.200
 16  2 24  1 49 30.0000000  0 11G08G30G13G10G27G11G07G18G01G15G28
 107457204.628 8  83732907.62546  20448418.422    20448424.371
        50.000          40.600
 114130565.261 7  88932956.79945  21718318.945    21718324.426
        47.000          35.400
 123443720.950 7  96189726.81443  23490508.664    23490511.156
        42.400          22.800
 121333919.725 7  94546021.64945  23089089.219    23089096.398
        42.600          31.500
 113036601.569 8  88080446.65946  21510126.109    21510130.828
        48.300          37.800
 118246976.289 7  92140615.20144  22501672.930    22501675.188
        44.100          27.500
 115961398.123 7  90359512.93845  22066712.531    22066715.141
        45.800          32.500
 123666420.870 7  96363441.86943  23532930.977    23532935.461
        43.700          23.900
 127281758.499 6  99180627.84742  24220913.047    24220922.395
        36.600          17.800
 127009455.945 7  98968458.89344  24169104.898    24169105.457
        42.600          24.300
 124774092.473 7  97226546.32143  23743712.891    23743713.742
        44.000          22.200
 16  2 24  1 50  0.0000000  0 11G08G30G13G10G27G11G07G18G01G15G28
 107466184.006 8  83739904.53746  20450128.188    20450132.438
        48.900          40.600
 114142011.200 7  88941874.94845  21720496.523    21720503.117
        44.800          34.700
 123460001.278 7  96202412.75843  23493607.398    23493608.309
        43.800          23.500
 121280120.552 7  94504100.18945  23078851.711    23078858.480
        43.900          30.800
 113110738.635 7  88138215.63446  21524233.594    21524238.547
        47.000          37.400
 118143577.580 7  92060044.78444  22481998.852    22481999.879
        45.200          28.200
 116032047.505 7  90414564.36845  22080156.750    22080159.242
        45.900          32.600
 123677286.082 6  96371907.87044  23534999.500    23535002.168
        41.300          25.700
 127162275.249 6  99087524.24843  24198177.922    24198185.746
        37.700          19.300
 126980953.336 6  98946248.98043  24163679.516    24163682.184
        41.400          22.300
 124681192.263 7  97154156.61043  23726034.906    23726035.055
        45.000          23.500
 16  2 24  1 50 30.0000000  0 11G08G30G13G10G27G11G07G18G01G15G28
 107475689.706 8  83747311.67946  20451936.039    20451941.637
        48.800          40.200
 114154093.510 7  88951290.17545  21722796.422    21722801.375
        45.800          35.100
 123476923.247 7  96215598.64743  23496826.391    23496828.355
        43.700          22.200
 121226852.433 7  94462592.14445  23068716.000    23068722.652
        43.400          31.100
 113185258.515 7  88196283.53546  21538414.953    21538419.672
        47.700          38.300
 118040507.028 7  91979730.12844  22462385.844    22462386.520
        45.400          28.100
 116103192.009 7  90470001.78145  22093694.172    22093696.371
        45.400          32.300
 123688675.491 7  96380782.82344  23537166.453    23537168.945
        42.600          25.000
 127042924.792 6  98994524.13843  24175468.672    24175473.684
        38.700          19.300
 126953034.536 7  98924493.81244  24158368.945    24158369.211
        42.000          24.700
 124588465.704 7  97081902.09744  23708389.742    23708390.066
        44.300          24.800
 16  2 24  1 51  0.0000000  0 11G08G30G13G10G27G11G07G18G01G15G28
 107485715.799 8  83755123.06546  20453845.438    20453851.211
        48.700          40.400
 114166805.802 7  88961196.03046  21725215.953    21725219.910
        47.200          36.300
 123494483.511 7  96229281.95143  23500166.938    23500170.484
        42.000          22.800
 121174116.254 7  94421499.08545  23058681.109    23058687.234
        44.600          32.400
 113260155.071 7  88254644.76246  21552666.820    21552671.891
        47.200          38.100
 117937764.180 7  91899670.76144  22442834.219    22442834.777
        45.600          28.100
 116174826.159 7  90525820.68745  22107325.906    22107327.695
        44.900          31.300
 123700586.208 7  96390064.30344  23539431.922    23539435.352
        42.700          24.800
 126923706.550 6  98901626.98343  24152782.609    24152787.152
        39.700          19.900
 126925698.951 6  98903193.45844  24153164.719    24153167.621
        40.400          24.100
 124495912.046 7  97009782.34543  23690775.922    23690777.887
        42.600          22.800
 16  2 24  1 51 30.0000000  0 11G08G30G13G10G27G11G07G18G01G15G28
 107496270.098 8  83763347.20746  20455854.656    20455859.492
        49.000          40.600
 114180152.264 7  88971596.36345  21727755.406    21727759.773
        47.100          35.500
 123512684.148 7  96243464.23043  23503631.820    23503634.137
        42.600          22.900
 121121916.512 7  94380824.11845  23048748.961    23048754.148
        43.600          32.100
 113335429.500 7  88313300.18346  21566990.844    21566995.914
        46.300          37.900
 117835354.686 7  91819871.19244  22423345.711    22423346.914
        45.500          28.600
 116246950.692 7  90582021.61745  22121051.781    22121052.750
        46.100          32.800
 123713021.164 6  96399754.71343  23541796.727    23541800.156
        41.400          23.800
 126804626.540 6  98808837.60643  24130120.648    24130126.832
        39.900          21.100
 126898950.291 6  98882350.29343  24148075.156    24148077.355
        40.900          23.900
 124403535.837 7  96937800.87443  23673196.930    23673199.188
        42.500          22.000
 16  2 24  1 52  0.0000000  0 11G08G30G13G10G27G11G07G18G01G15G28
 107507349.197 8  83771980.41646  20457962.398    20457967.117
        50.700          41.300
 114194131.069 7  88982489.34545  21730414.516    21730419.527
        46.600          35.400
 123531523.975 7  96258144.56843  23507216.813    23507219.480
        42.300          22.300
 121070254.285 7  94340567.80545  23038918.547    23038922.914
        45.800          32.800
 113411079.563 7  88372248.10846  21581386.539    21581392.254
        47.100          37.900
 117733280.801 7  91740333.21144  22403922.672    22403923.230
        46.300          29.700
 116319563.094 7  90638602.69545  22134869.563    22134870.883
        45.600          32.200
 123725976.469 6  96409849.43443  23544262.922    23544265.414
        41.100          22.500
 126685686.429 6  98716157.18343  24107487.188    24107492.961
        40.200          22.200
 126872788.361 7  98861964.12844  24143097.039    24143099.648
        42.100          26.000
 124311338.689 7  96865958.98343  23655652.719    23655655.211
        42.200          22.300
 16  2 24  1 52 30.0000000  0 11G08G30G13G10G27G11G07G18G01G15G28
 107518952.542 8  83781022.30246  20460170.766    20460175.484
        51.600          40.700
 114208741.333 8  88993874.39146  21733195.320    21733199.395
        48.000          36.000
 123551001.258 7  96273321.66144  23510924.258    23510926.633
        43.700          24.000
 121019131.611 7  94300732.11345  23029188.477    23029194.660
        43.900          32.100
 113487103.502 8  88431487.54046  21595854.320    21595858.863
        48.400          38.600
 117631544.101 7  91661058.00644  22384561.164    22384563.480
        45.400          29.300
 116392660.005 7  90695561.26845  22148778.375    22148780.457
        44.600          31.100
 123739454.361 7  96420351.95244  23546829.188    23546831.211
        44.000          24.700
 126566888.115 6  98623587.24343  24084881.547    24084886.441
        40.900          21.500
 126847214.382 6  98842036.23644  24138229.727    24138233.508
        41.400          24.000
 124219321.696 6  96794257.52444  23638141.477    23638144.848
        41.600          24.400
 16  2 24  1 53  0.0000000  0 11G08G30G13G10G27G11G07G18G01G15G28
 107531078.718 8  83790471.45846  20462477.852    20462482.395
        49.400          40.900
 114223981.564 7  89005749.78245  21736094.461    21736099.414
        46.000          35.800
 123571115.668 6  96288995.22943  23514749.898    23514754.031
        41.800          22.300
 120968549.197 7  94261316.94745  23019563.523    23019568.477
        42.500          31.200
 113563499.683 8  88491017.28546  21610393.000    21610396.898
        49.600          39.500
 117530147.298 7  91582047.72344  22365266.891    22365268.035
        46.000          29.700
 116466237.028 7  90752892.82245  22162781.969    22162783.758
        44.800          31.400
 123753452.674 7  96431259.67144  23549494.695    23549494.961
        42.600          26.900
 126448234.149 6  98531129.78543  24062302.008    24062307.488
        40.900          22.300
 126822229.590 6  98822567.65243  24133475.406    24133479.949
        41.800          23.300
 124127486.473 7  96722697.71143  23620665.664    23620668.918
        42.300          22.600
 16  2 24  1 53 30.0000000  0 11G08G30G13G10G27G11G07G18G01G15G28
 107543727.249 8  83800327.48946  20464884.883    20464888.957
        52.000          41.000
 114239851.767 7  89018116.05245  21739114.734    21739119.043
        47.200          35.600
 123591865.518 7  96305163.90943  23518698.172    23518702.539
        42.100          22.900
 120918510.287 7  94222325.74445  23010040.164    23010046.406
        44.100          30.500
 113640264.663 7  88550834.09246  21624999.336    21625004.699
        47.000          38.100
 117429092.063 7  91503303.48344  22346035.836    22346037.449
        44.900          28.700
 116540296.357 7  90810601.53345  22176873.992    22176876.309
        45.200          32.700
 123767971.930 7  96442573.54244  23552257.039    23552257.715
        43.600          25.500
 126329726.498 6  98438786.36543  24039749.711    24039756.422
        40.600          22.300
 126797833.986 6  98803558.09443  24128833.078    24128836.684
        41.800          23.200
 124035834.211 7  96651280.47143  23603226.469    23603228.434
        42.500          23.500
 16  2 24  1 54  0.0000000  0 11G08G30G13G10G27G11G07G18G01G15G28
 107556897.609 8  83810589.89646  20467390.016    20467395.262
        51.000          40.500
 114256352.766 8  89030974.28145  21742255.047    21742260.117
        48.000          35.200
 123613250.347 7  96321827.36143  23522768.797    23522771.699
        42.500          23.400
 120869016.057 7  94183758.70744  23000621.727    23000628.379
        42.700          29.800
 113717397.457 7  88610937.31046  21639677.055    21639682.945
        47.400          38.200
 117328380.941 7  91424827.08644  22326872.344    22326872.492
        44.600          29.500
 116614834.339 7  90868683.70045  22191057.563    22191059.879
        45.000          32.100
 123783011.857 7  96454293.39944  23555117.398    23555118.543
        43.900          25.600
 126211368.281 6  98346559.36543  24017226.523    24017234.055
        40.900          22.000
 126774028.921 7  98785008.58343  24124302.602    24124306.559
        42.400          22.500
 123944367.228 7  96580007.60343  23585821.102    23585822.480
        44.200          22.300
 16  2 24  1 54 30.0000000  0 11G08G30G13G10G27G11G07G18G01G15G28
 107570590.457 8  83821259.63946  20469996.141    20470000.859
        50.700          40.900
 114273482.784 7  89044322.29045  21745515.055    21745519.480
        47.000          35.900
 123635269.286 7  96338984.89443  23526960.625    23526962.238
        43.000          22.300
 120820069.769 7  94145618.93344  22991307.328    22991313.336
        42.600          29.900
 113794897.050 8  88671326.52846  21654425.305    21654430.141
        48.200          37.800
 117228017.716 7  91346621.99344  22307773.664    22307774.281
        45.000          29.300
 116689846.703 7  90927135.00745  22205333.633    22205334.074
        45.200          31.900
 123798570.889 7  96466417.10344  23558078.969    23558079.645
        43.400          25.300
 126093161.993 6  98254450.67443  23994733.789    23994740.383
        41.800          22.900
 126750815.672 7  98766920.22944  24119886.078    24119889.098
        43.600          24.400
 123853087.191 7  96508880.36144  23568450.898    23568452.102
        44.100          24.700
 16  2 24  1 55  0.0000000  0 11G08G30G13G10G27G11G07G18G01G15G28
 107584804.446 8  83832335.49046  20472701.828    20472706.254
        50.400          41.100
 114291241.406 7  89058160.10445  21748893.930    21748898.824
        46.300          35.200
 123657921.475 7  96356635.92543  23531270.461    23531272.074
        43.100          23.200
 120771672.443 6  94107907.04045  22982096.281    22982102.875
        41.800          30.500
 113872761.534 7  88732000.43646  21669243.203    21669246.281
        47.600          38.100
 117128003.791 7  91268688.97944  22288740.898    22288742.219
        45.300          29.900
 116765330.898 7  90985953.57445  22219696.922    22219698.066
        44.400          31.500
 123814649.691 7  96478946.15444  23561137.508    23561138.770
        43.400          25.300
 125975109.835 7  98162462.05144  23972270.469    23972274.660
        42.700          24.300
 126728195.059 6  98749293.75643  24115580.414    24115584.605
        41.700          22.300
 123761995.742 7  96437900.07443  23551115.461    23551117.543
        43.700          23.900
 16  2 24  1 55 30.0000000  0 11G08G30G13G10G27G11G07G18G01G15G28
 107599539.665 8  83843817.55746  20475504.891    20475509.434
        48.700          40.600
 114309628.310 7  89072487.53645  21752392.898    21752397.148
        47.200          35.100
 123681205.746 7  96374779.57943  23535702.117    23535703.320
        43.300          22.900
 120723825.702 7  94070624.07045  22972994.242    22972998.082
        43.200          30.700
 113950988.186 8  88792956.39746  21684129.063    21684133.195
        48.200          38.400
 117028342.496 7  91191030.96444  22269775.227    22269777.543
        44.400          29.300
 116841285.856 7  91045139.19145  22234149.953    22234151.742
        45.400          31.300
 123831247.709 7  96491880.07244  23564297.211    23564298.063
        42.100          24.200
 125857214.302 7  98070595.44743  23949835.078    23949840.266
        42.000          22.800
 126706168.486 7  98732130.52543  24111389.750    24111393.238
        43.000          22.900
 123671094.544 7  96367067.98143  23533816.711    23533819.906
        42.600          22.600
 16  2 24  1 56  0.0000000  0 11G08G30G13G10G27G11G07G18G01G15G28
 107614795.913 8  83855705.78346  20478407.734    20478412.512
        50.400          40.900
 114328643.313 7  89087304.41845  21756011.109    21756015.887
        46.100          35.200
 123705121.631 7  96393415.37443  23540252.531    23540255.023
        43.200          23.300
 120676532.157 7  94033772.14545  22963994.914    22963997.992
        45.800          31.100
 114029575.933 8  88854193.73546  21699084.000    21699087.605
        48.500          38.300
 116929036.313 7  91113649.65645  22250877.617    22250880.051
        44.800          30.200
 116917709.143 7  91104689.75745  22248693.086    22248694.992
        44.300          30.900
 123848363.320 7  96505216.64544  23567553.773    23567554.977
        42.600          25.400
 125739478.606 6  97978853.49443  23927427.461    23927435.285
        41.500          21.300
 126684736.119 7  98715430.05343  24107310.391    24107313.938
        42.000          22.600
 123580386.076 7  96296386.07443  23516556.109    23516558.836
        43.000          23.500
 16  2 24  1 56 30.0000000  0 11G08G30G13G10G27G11G07G18G01G15G28
 107630570.707 8  83867997.46346  20481410.148    20481415.219
        49.900          40.600
 114348284.808 7  89102609.46645  21759748.289    21759753.184
        45.300          34.900
 123729666.823 7  96412541.51043  23544922.820    23544925.723
        43.900          22.200
 120629792.856 7  93997352.16845  22955099.164    22955103.180
        44.600          31.300
 114108521.451 7  88915709.50646  21714105.211    21714110.398
        47.200          37.400
 116830086.552 7  91036546.04444  22232048.250    22232050.098
        46.000          29.700
 116994597.429 7  91164602.73145  22263324.102    22263325.949
        43.700          31.500
 123865997.421 7  96518957.70944  23570907.891    23570911.379
        43.500          25.300
 125621904.184 6  97887237.20743  23905052.242    23905061.063
        39.700          22.600
 126663898.065 7  98699192.55743  24103345.469    24103348.898
        42.600          22.600
 123489870.836 7  96225854.69643  23499331.922    23499335.117
        43.600          22.600
 16  2 24  1 57  0.0000000  0 11G08G30G13G10G27G11G07G18G01G15G28
 107646867.287 8  83880696.54346  20484511.320    20484515.805
        50.000          40.900
 114368553.885 7  89118403.66045  21763605.469    21763609.719
        46.600          34.600
 123754842.233 7  96432158.76244  23549713.922    23549716.883
        43.700          24.500
 120583610.654 7  93961366.08145  22946310.688    22946315.758
        43.600          32.100
 114187825.860 7  88977505.39846  21729196.406    21729201.477
        47.200          38.600
 116731497.604 7  90959723.56745  22213287.250    22213289.273
        45.400          30.600
 117071950.285 7  91224877.80845  22278044.508    22278046.063
        44.200          31.600
 123884149.293 6  96533101.80244  23574361.938    23574365.309
        41.200          25.100
 125504495.118 6  97795749.77843  23882710.609    23882718.727
        40.900          21.500
 126643657.269 7  98683420.51743  24099495.664    24099497.336
        43.900          23.900
 123399552.241 7  96155476.54844  23482146.258    23482147.344
        44.100          24.500
 16  2 24  1 57 30.0000000  0 11G08G30G13G10G27G11G07G18G01G15G28
 107663680.865 8  83893798.02846  20487710.172    20487715.242
        50.000          40.900
 114389447.258 7  89134683.93945  21767580.320    21767586.152
        45.800          33.700
 123780644.845 7  96452264.63744  23554623.508    23554626.645
        43.000          25.400
 120537986.398 7  93925815.00745  22937628.609    22937633.328
        43.100          31.200
 114267484.443 7  89039577.11046  21744354.375    21744359.973
        46.700          38.000
 116633270.155 7  90883182.76144  22194595.852    22194597.348
        45.900          29.900
 117149762.979 7  91285511.14345  22292851.359    22292853.383
        45.200          31.500
 123902816.661 7  96547647.13644  23577915.234    23577918.723
        42.100          25.900
 125387252.217 6  97704391.82843  23860401.461    23860408.055
        41.500          21.700
 126624012.780 7  98668113.24244  24095756.547    24095758.219
        44.200          25.300
 123309430.496 7  96085251.79144  23464995.617    23464997.582
        44.100          26.000
 16  2 24  1 58  0.0000000  0 11G08G30G13G10G27G11G07G18G01G15G28
 107681011.968 8  83907302.74246  20491007.859    20491013.691
        49.600          40.500
 114410964.206 7  89151449.73845  21771676.375    21771682.559
        45.300          34.800
 123807073.718 7  96472858.63743  23559652.070    23559655.324
        42.200          21.700
 120492920.925 7  93890698.92845  22929053.070    22929057.730
        44.600          31.700
 114347495.349 8  89101923.14346  21759583.188    21759585.914
        48.000          38.600
 116535406.612 7  90806925.47245  22175973.555    22175974.816
        46.600          31.300
 117228033.088 7  91346500.87945  22307746.719    22307746.574
        46.100          30.600
 123922001.701 7  96562596.97844  23581566.195    23581569.273
        43.600          26.500
 125270178.048 7  97613165.32743  23838124.195    23838128.914
        42.200          22.500
 126604965.485 7  98653271.43443  24092131.000    24092133.199
        43.300          23.000
 123219507.509 7  96015181.88644  23447884.344    23447885.781
        44.600          25.000
 16  2 24  1 58 30.0000000  0 11G08G30G13G10G27G11G07G18G01G15G28
 107698861.798 8  83921211.67346  20494404.867    20494411.168
        48.800          40.900
 114433108.653 7  89168705.77945  21775889.477    21775895.895
        44.600          34.600
 123834128.991 7  96493940.71143  23564801.469    23564803.434
        42.100          22.500
 120448418.385 7  93856021.56745  22920583.547    22920588.734
        44.300          31.700
 114427858.470 7  89164543.66146  21774873.641    21774878.242
        46.800          37.700
 116437911.022 7  90730954.90945  22157420.875    22157421.844
        46.800          30.400
 117306759.575 7  91407846.35145  22322727.539    22322728.391
        45.800          30.400
 123941702.759 7  96577948.51743  23585315.734    23585316.645
        42.200          23.900
 125153276.139 7  97522072.92643  23815877.773    23815884.016
        42.300          23.300
 126586516.853 7  98638895.94143  24088620.117    24088622.434
        42.800          22.500
 123129786.508 7  95945269.48044  23430810.680    23430812.703
        43.800          24.100
 16  2 24  1 59  0.0000000  0 11G08G30G13G10G27G11G07G18G01G15G28
 107717226.814 8  83935521.59446  20497900.078    20497905.617
        50.400          40.900
 114455875.113 7  89186446.17545  21780221.859    21780227.223
        47.000          34.500
 123861807.596 7  96515508.49343  23570069.414    23570070.383
        42.700          22.900
 120404479.288 7  93821783.71045  22912223.422    22912227.789
        43.500          32.300
 114508570.042 7  89227435.50946  21790232.414    21790237.133
        46.100          37.500
 116340783.976 7  90655271.51845  22138936.961    22138939.160
        45.900          30.400
 117385937.618 7  91469543.53245  22337793.961    22337795.984
        45.100          30.100
 123961918.450 7  96593701.20844  23589161.742    23589163.883
        44.600          26.400
 125036547.575 6  97431115.57543  23793665.633    23793671.348
        41.900          22.500
 126568666.264 7  98624986.42743  24085222.539    24085225.500
        42.800          22.600
 123040267.053 7  95875514.06744  23413775.578    23413777.543
        43.700          26.100
 16  2 24  1 59 30.0000000  0 11G08G30G13G10G27G11G07G18G01G15G28
 107736108.356 8  83950234.03046  20501494.203    20501499.098
        50.500          40.900
 114479263.545 7  89204670.95745  21784673.844    21784677.742
        47.300          35.100
 123890109.299 7  96537561.74043  23575454.320    23575456.227
        42.600          23.000
 120361105.214 7  93787985.94545  22903969.594    22903974.137
        45.100          33.300
 114589629.099 7  89290598.06046  21805657.750    21805662.293
        47.300          36.700
 116244028.721 7  90579877.81545  22120525.500    22120527.465
        45.700          30.900
 117465566.233 7  91531591.79244  22352946.102    22352948.477
        43.600          29.900
 123982647.815 7  96609853.96944  23593107.391    23593108.066
        44.800          24.600
 124919995.900 7  97340296.14343  23771486.211    23771491.867
        42.600          22.300
 126551415.755 7  98611544.72944  24081941.984    24081943.246
        44.100          25.300
 122950951.985 7  95805917.83044  23396779.547    23396781.102
        44.100          24.100
 16  2 24  2  0  0.0000000  0 12G08G30G22G13G10G27G11G07G18G01G15G28
 107755508.487 8  83965351.33846  20505185.516    20505190.234
        51.000          41.100
 114503275.135 7  89223381.45946  21789242.836    21789247.203
        46.900          36.100
 131274202.05515 102291610.71852  24980658.320    24980657.355
        34.300          14.800
 123919033.903 7  96560100.28543  23580957.438    23580960.809
        42.700          22.300
 120318298.449 7  93754629.80545  22895822.750    22895828.641
        44.300          33.100
 114671035.547 7  89354031.53346  21821149.688    21821153.938
        47.300          37.600
 116147648.782 7  90504776.48145  22102184.016    22102186.977
        45.500          30.400
 117545643.983 7  91593990.08944  22368183.805    22368186.824
        44.100          29.700
 124003892.535 7  96626408.34744  23597150.180    23597151.031
        44.000          25.200
 124803624.556 6  97249617.18543  23749341.289    23749347.063
        41.400          22.000
 126534766.627 7  98598571.65843  24078772.094    24078774.938
        43.600          22.600
 122861844.368 7  95736483.31944  23379822.422    23379824.797
        43.000          24.300
 16  2 24  2  0 30.0000000  0 12G08G30G22G13G10G27G11G07G18G01G15G28
 107775422.893 8  83980869.12546  20508974.539    20508979.727
        49.600          40.500
 114527906.882 7  89242574.97945  21793931.070    21793935.027
        47.300          35.000
 131173423.081 5 102213081.79542  24961479.242    24961479.684
        34.700          15.600
 123948578.792 7  96583122.22944  23586580.484    23586582.625
        43.600          24.200
 120276059.613 7  93721715.99645  22887784.992    22887791.469
        44.200          31.900
 114752785.847 7  89417733.10346  21836706.500    21836710.574
        46.500          36.800
 116051645.277 7  90429968.49245  22083917.211    22083917.945
        45.700          31.400
 117626166.176 7  91656734.42844  22383506.953    22383509.445
        44.300          29.500
 124025650.427 7  96643362.65644  23601290.688    23601291.070
        43.400          24.400
 124687434.472 6  97159079.44943  23727231.164    23727236.527
        41.600          21.700
 126518717.612 7  98586066.00243  24075718.359    24075720.090
        42.700          23.600
 122772944.297 7  95667210.56644  23362905.609    23362907.750
        43.400          24.500
 16  2 24  2  1  0.0000000  0 12G08G30G22G13G10G27G11G07G18G01G15G28
 107795851.560 8  83996787.62946  20512861.625    20512867.164
        48.700          40.600
 114553158.633 7  89262251.64645  21798736.141    21798740.215
        47.300          35.900
 131072742.76415 102134629.71952  24942320.227    24942319.965
        34.100          16.300
 123978742.946 7  96606626.75044  23592320.563    23592323.465
        42.900          25.700
 120234391.494 7  93689247.03645  22879857.445    22879862.105
        44.700          33.600
 114834877.735 7  89481700.66546  21852328.258    21852331.980
        46.900          36.900
 115956020.924 7  90355455.88445  22065718.359    22065721.262
        44.300          30.900
 117707131.080 7  91719823.92344  22398915.234    22398916.906
        43.000          29.900
 124047921.211 7  96660716.88044  23605528.195    23605528.520
        42.800          24.700
 124571428.508 6  97068685.18143  23705155.180    23705161.773
        41.600          22.500
 126503270.092 7  98574029.03143  24072779.523    24072781.605
        43.700          22.500
 122684253.924 7  95598101.17244  23346027.109    23346030.832
        43.000          26.200
 16  2 24  2  1 30.0000000  0 12G08G30G22G13G10G27G11G07G18G01G15G28
 107816793.263 8  84013105.68646  20516846.883    20516852.656
        50.000          40.400
 114579028.795 7  89282409.98745  21803658.188    21803663.082
        47.900          35.900
 130972163.844 5 102056256.55242  24923180.328    24923180.711
        34.200          16.300
 124009524.638 7  96630612.42644  23598178.273    23598181.059
        43.100          24.400
 120193296.031 7  93657224.81845  22872037.508    22872041.816
        45.100          33.000
 114917309.713 7  89545933.35646  21868014.813    21868018.359
        46.700          36.900
 115860777.743 7  90281240.21945  22047596.047    22047598.012
        45.000          31.200
 117788535.558 7  91783255.71245  22414406.500    22414407.938
        43.800          30.500
 124070703.124 7  96678469.12443  23609862.906    23609863.934
        43.600          23.500
 124455608.973 6  96978436.23743  23683114.031    23683122.148
        40.600          22.300
 126488424.123 7  98562460.74644  24069952.438    24069956.863
        43.600          24.400
 122595774.723 7  95529156.35744  23329191.711    23329193.559
        44.000          26.000
 16  2 24  2  2  0.0000000  0 12G08G30G22G13G10G27G11G07G18G01G15G28
 107838250.576 8  84029826.26746  20520930.078    20520934.973
        50.000          40.800
 114605518.666 7  89303051.44545  21808699.648    21808703.547
        47.300          35.900
 130871690.502 5 101977965.78542  24904060.180    24904060.973
        35.500          16.300
 124040924.083 7  96655079.47543  23604152.891    23604156.789
        43.000          23.500
 120152774.554 7  93625649.51545  22864326.844    22864330.566
        45.000          33.600
 115000082.076 7  89610431.81946  21883764.297    21883768.664
        46.100          36.000
 115765920.224 7  90207325.34045  22029545.352    22029547.141
        45.400          31.700
 117870379.219 7  91847030.07345  22429980.672    22429981.582
        45.000          30.400
 124093996.817 7  96696620.00944  23614295.211    23614296.531
        42.900          25.600
 124339979.598 6  96888335.45443  23661111.469    23661118.473
        41.100          22.600
 126474181.532 7  98551362.61744  24067243.047    24067246.242
        43.900          24.700
 122507509.867 7  95460378.56044  23312396.992    23312397.434
        45.000          26.200
 16  2 24  2  2 30.0000000  0 12G08G30G22G13G10G27G11G07G18G01G15G28
 107860219.369 8  84046944.73046  20525111.031    20525115.398
        50.100          40.500
 114632626.242 7  89324174.40045  21813857.375    21813862.152
        47.500          34.900
 130771324.173 6 101899758.31242  24884961.375    24884962.930
        36.200          15.600
 124072939.182 7  96680026.27744  23610246.398    23610249.066
        42.800          26.200
 120112825.757 7  93594519.10045  22856725.242    22856729.902
        44.600          33.000
 115083190.431 7  89675191.86445  21899578.773    21899582.555
        45.400          35.800
 115671449.613 7  90133712.09645  22011566.453    22011569.941
        43.600          30.700
 117952657.654 7  91911143.15545  22445637.000    22445639.258
        43.900          30.200
 124117800.249 7  96715167.81944  23618825.430    23618827.043
        42.200          25.300
 124224541.805 6  96798383.86744  23639144.680    23639151.918
        40.100          24.100
 126460542.700 7  98540735.04843  24064646.477    24064649.789
        42.700          22.600
 122419459.986 7  95391768.22644  23295641.719    23295642.160
        44.700          26.500
 16  2 24  2  3  0.0000000  0 12G08G30G22G13G10G27G11G07G18G01G15G28
 107882699.224 8  84064461.46546  20529388.555    20529393.449
        50.800          40.400
 114660348.471 7  89345775.96345  21819132.453    21819137.230
        47.500          35.400
 130671066.435 6 101821635.38842  24865882.055    24865883.023
        37.900          16.300
 124105567.330 7  96705450.78544  23616456.016    23616458.566
        43.700          25.000
 120073457.476 7  93563843.34945  22849232.180    22849237.133
        44.400          32.600
 115166632.026 7  89740211.38445  21915457.352    21915461.836
        46.700          35.600
 115577366.857 7  90060400.99445  21993662.797    21993665.289
        44.500          30.700
 118035367.778 7  91975592.71845  22461376.273    22461378.238
        45.200          30.200
 124142113.606 7  96734113.56644  23623452.523    23623453.492
        43.400          24.500
 124109297.285 6  96708582.95243  23617213.984    23617221.398
        40.600          22.300
 126447506.852 7  98530577.34843  24062166.039    24062169.469
        42.600          21.800
 122331625.969 7  95323326.10944  23278926.836    23278927.805
        45.500          27.100
 16  2 24  2  3 30.0000000  0 12G08G30G22G13G10G27G11G07G18G01G15G28
 107905690.298 8  84082376.66546  20533761.891    20533768.367
        49.800          40.000
 114688686.749 7  89367857.72345  21824525.414    21824530.250
        47.200          35.300
 130570921.084 6 101743599.94842  24846827.125    24846827.039
        38.400          16.900
 124138808.371 7  96731352.90143  23622779.703    23622782.957
        42.700          23.500
 120034667.646 7  93533618.18945  22841849.461    22841854.707
        44.800          32.200
 115250406.077 7  89805489.72345  21931398.930    21931404.000
        46.400          35.900
 115483675.414 7  89987394.73845  21975835.133    21975836.102
        44.700          30.900
 118118507.363 7  92040376.82045  22477199.258    22477200.227
        46.100          32.600
 124166935.209 7  96753454.94644  23628175.305    23628177.035
        42.400          24.300
 123994249.880 6  96618935.72344  23595322.406    23595328.063
        40.500          25.500
 126435075.466 7  98520890.73543  24059800.586    24059802.902
        43.900          23.200
 122244010.709 7  95255054.51844  23262253.266    23262254.820
        44.700          27.100
 16  2 24  2  4  0.0000000  0 12G08G30G22G13G10G27G11G07G18G01G15G28
 107929190.794 8  84100688.46346  20538235.273    20538240.578
        49.000          40.000
 114717638.951 7  89390417.84345  21830034.656    21830038.789
        46.100          35.000
 130470890.333 6 101665653.85842  24827791.813    24827791.609
        39.100          16.900
 124172660.332 6  96757731.09043  23629220.836    23629224.969
        41.600          23.200
 119996456.438 7  93503843.37645  22834579.234    22834583.660
        44.800          32.900
 115334510.245 7  89871025.14746  21947404.086    21947409.215
        46.000          36.000
 115390377.345 7  89914695.00245  21958080.969    21958081.527
        44.500          30.400
 118202073.666 7  92105493.35245  22493099.625    22493102.176
        45.100          31.300
 124192265.119 6  96773192.59643  23632994.016    23632996.918
        40.800          21.700
 123879401.343 6  96529443.45443  23573466.523    23573473.293
        39.900          22.200
 126423248.302 7  98511674.78644  24057551.453    24057553.184
        42.800          24.500
 122156615.685 7  95186954.53944  23245621.977    23245624.293
        44.100          27.400
 16  2 24  2  4 30.0000000  0 12G08G30G22G13G10G27G11G07G18G01G15G28
 107953201.327 8  84119397.78546  20542803.969    20542809.684
        49.500          40.200
 114747203.672 7  89413454.70445  21835661.102    21835665.703
        46.700          34.000
 130370976.829 6 101587799.13743  24808778.828    24808779.211
        39.700          18.300
 124207121.890 7  96784584.21143  23635779.500    23635783.105
        42.500          22.600
 119958826.782 7  93474521.64245  22827418.297    22827423.367
        45.300          32.400
 115418943.592 7  89936817.09146  21963472.234    21963475.605
        46.300          36.900
 115297475.612 7  89842304.10145  21940403.961    21940402.879
        45.600          30.600
 118286065.215 7  92170941.51945  22509083.383    22509085.230
        46.300          31.400
 124218102.669 6  96793325.85744  23637910.516    23637912.656
        40.900          24.300
 123764754.664 6  96440108.47743  23551650.945    23551656.309
        40.700          22.500
 126412026.460 7  98502930.55543  24055414.344    24055417.832
        44.100          22.800
 122069443.173 7  95119027.96644  23229033.766    23229035.906
        44.600          27.600
 16  2 24  2  5  0.0000000  0 12G08G30G22G13G10G27G11G07G18G01G15G28
 107977722.163 8  84138505.04946  20547470.938    20547475.891
        50.100          40.600
 114777382.727 7  89436971.11745  21841404.484    21841408.734
        47.200          35.000
 130271184.315 6 101510038.60442  24789787.813    24789789.367
        40.600          17.400
 124242192.283 7  96811911.76244  23642454.719    23642455.688
        42.600          24.600
 119921780.887 7  93445654.82545  22820367.563    22820373.395
        44.900          33.300
 115503705.184 7  90002865.13846  21979601.008    21979605.434
        45.200          36.100
 115204973.017 7  89770224.16945  21922799.547    21922800.809
        45.200          31.200
 118370478.766 7  92236718.37845  22525147.641    22525148.258
        46.700          32.100
 124244446.331 7  96813852.90844  23642924.328    23642926.000
        42.100          25.000
 123650312.582 6  96350932.86444  23529872.344    23529878.820
        40.900          25.100
 126401411.010 7  98494658.89443  24053396.328    24053398.293
        44.700          23.400
 121982495.251 7  95051276.37844  23212489.188    23212490.625
        44.900          28.300
 16  2 24  2  5 30.0000000  0 12G08G30G22G13G10G27G11G07G18G01G15G28
 108002750.803 8  84158007.95946  20552234.398    20552239.117
        49.300          39.900
 114808172.852 7  89460963.61545  21847262.602    21847267.203
        47.000          34.200
 130171514.479 6 101432373.64943  24770822.039    24770822.246
        40.900          19.600
 124277869.305 6  96839712.10143  23649241.742    23649244.996
        41.200          22.600
 119885319.771 7  93417243.86845  22813430.383    22813434.809
        44.600          33.000
 115588792.116 7  90069166.82446  21995792.328    21995796.754
        45.300          36.000
 115112871.396 7  89698456.71645  21905272.906    21905274.344
        44.600          30.800
 118455311.103 7  92302821.49645  22541289.219    22541290.305
        46.000          31.700
 124271295.408 6  96834773.69944  23648034.813    23648036.133
        41.400          25.000
 123536077.238 6  96261918.41644  23508135.102    23508140.113
        40.900          24.700
 126391401.245 7  98486859.18744  24051491.438    24051493.109
        44.100          24.400
 121895772.851 7  94983700.48744  23195986.242    23195987.445
        43.700          27.100
 16  2 24  2  6  0.0000000  0 12G08G30G22G13G10G27G11G07G18G01G15G28
 108028286.431 8  84177905.78646  20557092.484    20557097.848
        50.100          40.200
 114839572.908 7  89485431.31345  21853238.320    21853242.219
        47.600          35.700
 130071970.600 6 101354807.08643  24751879.477    24751879.801
        41.900          20.400
 124314151.126 7  96867983.54443  23656146.828    23656148.910
        42.000          22.200
 119849443.971 7  93389288.64845  22806601.992    22806607.063
        45.500          33.500
 115674202.000 7  90135720.04746  22012044.367    22012049.438
        45.700          36.400
 115021172.825 7  89627003.23345  21887824.094    21887824.301
        45.600          31.800
 118540559.600 7  92369248.77745  22557511.797    22557513.410
        44.900          31.400
 124298649.358 7  96856088.03643  23653240.164    23653242.246
        42.800          23.000
 123422050.791 6  96173066.63744  23486436.289    23486441.711
        41.800          25.800
 126381997.763 7  98479531.84843  24049699.813    24049703.008
        43.800          22.900
 121809276.383 7  94916299.96244  23179525.141    23179527.457
        44.000          25.800
 16  2 24  2  6 30.0000000  0 12G08G30G22G13G10G27G11G07G18G01G15G28
 108054329.190 8  84198198.94046  20562047.914    20562053.160
        49.900          40.200
 114871581.483 7  89510372.89945  21859329.078    21859333.152
        47.700          35.300
 129972554.585 7 101277340.10743  24732961.422    24732961.805
        42.100          21.300
 124351036.976 7  96896725.80943  23663167.297    23663168.090
        42.000          22.800
 119814155.690 7  93361791.21445  22799888.047    22799891.945
        45.100          32.300
 115759933.354 7  90202523.71046  22028358.922    22028363.465
        46.400          36.300
 114929879.816 7  89555865.60045  21870452.359    21870453.035
        46.200          31.700
 118626221.423 7  92435997.90245  22573811.398    22573814.594
        44.000          30.200
 124326506.791 7  96877794.45744  23658542.586    23658543.555
        43.200          24.600
 123308236.273 6  96084380.06344  23464778.938    23464784.008
        41.800          25.400
 126373201.167 7  98472677.52243  24048026.523    24048028.078
        43.600          23.800
 121723011.201 7  94849080.60444  23163112.070    23163112.980
        44.200          27.600
 16  2 24  2  7  0.0000000  0 12G08G30G22G13G10G27G11G07G18G01G15G28
 108080877.718 8  84218886.24246  20567100.000    20567105.363
        50.200          40.700
 114904197.637 7  89535787.95045  21865535.578    21865540.707
        47.000          35.200
 129873268.874 6 101199974.55643  24714067.688    24714068.715
        41.800          19.900
 124388524.711 7  96925936.96643  23670300.438    23670301.113
        42.600          22.500
 119779456.503 7  93334753.03045  22793285.641    22793289.305
        45.300          33.600
 115845983.778 7  90269575.91045  22044733.211    22044739.453
        45.300          35.900
 114838994.953 7  89485046.19345  21853157.547    21853158.223
        46.800          33.100
 118712293.754 7  92503066.69345  22590192.430    22590193.926
        44.600          30.900
 124354868.630 7  96899894.60744  23663939.094    23663941.234
        42.900          25.000
 123194635.671 7  95995860.16244  23443160.219    23443166.988
        42.000          25.800
 126365011.490 7  98466296.02043  24046468.125    24046469.680
        43.200          22.500
 121636976.745 7  94782040.94544  23146737.555    23146739.754
        43.900          25.100
 16  2 24  2  7 30.0000000  0 12G08G30G22G13G10G27G11G07G18G01G15G28
 108107931.184 8  84239966.91346  20572247.945    20572253.543
        49.000          40.100
 114937421.149 8  89561676.43145  21871858.688    21871863.289
        48.200          35.000
 129774116.468 6 101122712.79643  24695199.453    24695200.598
        41.700          21.300
 124426613.008 7  96955616.11943  23677547.602    23677549.508
        42.200          20.900
 119745347.870 7  93308175.03045  22786794.242    22786798.141
        45.100          32.900
 115932352.285 7  90336876.02646  22061170.195    22061174.445
        45.900          36.700
 114748521.071 7  89414547.08745  21835940.461    21835941.957
        45.600          32.400
 118798775.603 7  92570455.12845  22606647.633    22606650.887
        43.700          30.200
 124383732.333 6  96922385.38244  23669432.695    23669434.543
        41.800          25.100
 123081251.644 6  95907508.88844  23421583.578    23421590.992
        41.600          25.800
 126357429.396 7  98460388.07044  24045026.164    24045026.957
        43.600          24.700
 121551175.231 7  94715182.49844  23130411.375    23130412.344
        45.000          27.100
 16  2 24  2  8  0.0000000  0 12G08G30G22G13G10G27G11G07G18G01G15G28
 108135489.032 8  84261440.53146  20577492.805    20577498.227
        50.400          40.900
 114971250.063 7  89588036.58645  21878295.742    21878300.988
        47.800          34.700
 129675099.841 7 101045556.84543  24676357.328    24676358.297
        42.400          22.300
 124465300.116 6  96985761.84743  23684908.992    23684911.484
        41.800          22.200
 119711830.599 7  93282057.64345  22780416.570    22780420.000
        45.100          32.300
 116019036.676 7  90404422.33545  22077664.250    22077669.965
        45.300          35.800
 114658460.083 7  89344369.76045  21818801.688    21818803.887
        46.000          32.400
 118885663.707 7  92638160.47744  22623181.945    22623184.789
        44.200          29.500
 124413097.290 7  96945266.69844  23675021.180    23675022.734
        43.200          24.600
 122968087.095 6  95819328.74344  23400047.977    23400055.508
        40.200          24.600
 126350455.072 7  98454953.73143  24043698.148    24043699.469
        43.100          23.800
 121465608.896 7  94648507.63044  23114127.742    23114128.945
        45.000          27.100
 16  2 24  2  8 30.0000000  0 12G08G30G22G13G10G27G11G07G18G01G15G28
 108163550.084 8  84283306.43546  20582833.156    20582837.113
        49.800          41.200
 115005682.800 7  89614867.25345  21884847.961    21884852.152
        47.000          34.700
 129576222.234 7 100968509.33143  24657542.234    24657542.852
        42.400          23.000
 124504584.728 6  97016373.31743  23692383.648    23692387.723
        40.900          20.100
 119678905.767 7  93256401.75345  22774150.484    22774154.500
        44.900          32.200
 116106034.301 7  90472212.56745  22094218.992    22094224.063
        46.000          35.200
 114568814.223 7  89274515.90745  21801742.828    21801744.441
        45.700          33.100
 118972953.807 7  92706178.77444  22639794.602    22639795.160
        44.000          29.200
 124442963.311 7  96968539.12444  23680705.164    23680707.070
        43.500          25.600
 122855143.974 6  95731321.21544  23378555.898    23378562.844
        40.100          25.600
 126344087.991 7  98449992.46843  24042486.125    24042487.680
        42.500          23.500
 121380278.456 7  94582016.42444  23097891.313    23097891.461
        45.200          27.000
 16  2 24  2  9  0.0000000  0 12G08G30G22G13G10G27G11G07G18G01G15G28
 108192113.435 8  84305563.55146  20588268.063    20588273.719
        49.500          40.800
 115040717.573 7  89642165.42555  21891514.930    21891520.000
        47.800          33.500
 129477485.621 6 100891571.63943  24638752.398    24638753.543
        41.100          22.300
 124544464.646 7  97047448.64943  23699975.195    23699975.695
        42.600          21.700
 119646574.664 7  93231208.24145  22767996.438    22768002.211
        44.600          31.400
 116193344.067 7  90540246.13846  22110835.438    22110838.867
        46.400          36.300
 114479585.922 7  89204987.49145  21784763.164    21784764.543
        46.000          33.400
 119060643.978 7  92774508.80944  22656478.828    22656481.555
        44.200          28.700
 124473329.279 7  96992201.38344  23686482.906    23686484.637
        42.300          24.300
 122742425.118 6  95643488.51744  23357106.531    23357113.066
        40.900          25.800
 126338328.574 7  98445504.52944  24041390.234    24041392.551
        42.600          24.000
 121295186.293 7  94515710.82244  23081697.672    23081699.520
        46.100          28.200
 16  2 24  2  9 30.0000000  0 12G08G30G22G13G10G27G11G07G18G01G15G28
 108221179.880 8  84328213.07046  20593800.453    20593804.000
        50.300          40.900
 115076358.017 8  89669938.21745  21898297.859    21898301.582
        48.200          35.300
 129378893.794 6 100814746.83143  24619990.156    24619992.414
        40.600          22.300
 124584939.217 6  97078987.29943  23707673.508    23707678.988
        40.700          20.600
 119614841.102 7  93206480.86445  22761956.813    22761963.875
        43.300          30.900
 116280964.898 7  90608522.15845  22127509.117    22127512.781
        46.700          35.500
 114390778.117 7  89135786.70645  21767863.563    21767865.234
        45.900          33.000
 119148732.346 7  92843149.05644  22673241.094    22673244.523
        42.700          28.400
 124504193.068 7  97016250.71243  23692354.961    23692357.043
        42.000          22.900
 122629933.585 6  95555832.87244  23335700.836    23335706.082
        40.900          24.700
 126333178.038 7  98441491.06044  24040410.289    24040412.957
        42.400          24.100
 121210334.866 7  94449592.76044  23065550.914    23065553.582
        44.300          27.700
 16  2 24  2 10  0.0000000  0 12G08G30G22G13G10G27G11G07G18G01G15G28
 108250746.013 8  84351251.46346  20599424.867    20599429.762
        49.300          40.800
 115112596.932 8  89698176.64045  21905192.648    21905197.777
        48.200          34.800
 129280447.895 6 100738035.69143  24601257.055    24601259.430
        41.500          22.200
 124626005.476 7  97110987.12543  23715490.141    23715493.570
        42.600          22.200
 119583703.662 7  93182217.85545  22756034.844    22756038.625
        45.400          32.400
 116368893.213 7  90677037.70146  22144240.836    22144244.617
        46.500          36.000
 114302391.980 7  89066914.47945  21751043.242    21751045.910
        44.900          33.700
 119237215.006 7  92912096.62344  22690079.453    22690082.473
        42.800          28.200
 124535555.546 6  97040689.65043  23698323.438    23698324.406
        40.800          22.800
 122517670.516 6  95468355.19744  23314337.398    23314342.879
        41.200          24.200
 126328635.593 7  98437951.34544  24039546.391    24039548.883
        42.900          25.500
 121125724.544 7  94383662.56144  23049449.617    23049452.695
        45.400          28.900
 16  2 24  2 10 30.0000000  0 12G08G30G22G13G10G27G11G07G18G01G15G28
 108280811.111 8  84374678.29446  20605146.273    20605151.637
        49.400          40.800
 115149434.282 8  89726881.11545  21912202.219    21912207.055
        48.400          34.600
 129182150.784 6 100661440.52943  24582551.180    24582554.082
        41.300          22.600
 124667661.697 6  97143446.57743  23723415.398    23723420.059
        40.900          20.900
 119553164.743 7  93158421.60645  22750222.133    22750227.145
        44.500          31.600
 116457127.409 7  90745791.56345  22161029.844    22161035.148
        44.600          34.700
 114214429.916 7  88998372.61945  21734304.742    21734307.000
        45.300          33.300
 119326088.993 7  92981349.10844  22706991.383    22706994.578
        43.000          28.300
 124567413.931 7  97065514.84244  23704386.328    23704386.242
        42.700          25.600
 122405638.666 7  95381057.68744  23293020.063    23293024.195
        42.300          25.800
 126324701.470 6  98434885.83743  24038796.563    24038799.934
        41.800          22.500
 121041357.658 7  94317922.08844  23033394.766    23033398.723
        42.900          28.400
 16  2 24  2 11  0.0000000  0 12G08G30G22G13G10G27G11G07G18G01G15G28
 108311377.025 8  84398496.04446  20610962.453    20610967.816
        50.000          39.900
 115186869.945 8  89756051.78745  21919325.672    21919330.742
        48.100          34.200
 129084006.212 6 100584964.14343  24563876.914    24563878.352
        41.800          22.300
 124709907.291 6  97176365.28943  23731453.789    23731458.977
        40.400          22.000
 119523225.410 7  93135092.30245  22744526.242    22744529.555
        45.100          32.700
 116545666.578 7  90814782.99845  22177879.406    22177883.891
        46.800          35.200
 114126895.318 7  88930163.85945  21717649.273    21717649.539
        46.800          33.600
 119415353.021 6  93050905.61944  22723977.656    22723981.496
        41.900          29.300
 124599767.880 7  97090725.95043  23710540.969    23710542.465
        43.100          22.300
 122293841.662 7  95293943.24444  23271744.797    23271750.219
        43.800          25.200
 126321376.634 6  98432295.06843  24038162.742    24038166.348
        41.100          22.600
 120957236.924 7  94252373.41644  23017387.688    23017390.766
        44.500          27.900
 16  2 24  2 11 30.0000000  0 12G08G30G22G13G10G27G11G07G18G01G15G28
 108342441.297 8  84422702.00946  20616873.695    20616879.527
        48.100          39.600
 115224902.383 8  89785687.51945  21926564.563    21926568.109
        48.200          34.900
 128986015.958 7 100508607.93943  24545231.578    24545230.906
        42.200          23.600
 124752739.853 6  97209741.38943  23739606.422    23739610.262
        41.100          20.900
 119493886.219 7  93112230.31345  22738941.609    22738947.090
        44.700          31.900
 116634508.802 7  90884010.77045  22194785.703    22194789.367
        46.000          35.500
 114039789.648 7  88862289.32245  21701072.391    21701074.121
        46.400          33.200
 119505003.485 7  93120763.25144  22741038.570    22741041.707
        42.500          28.900
 124632616.714 6  97116322.94344  23716793.727    23716793.582
        40.500          25.400
 122182281.303 7  95207013.13844  23250514.875    23250521.938
        43.600          27.700
 126318660.655 7  98430178.67643  24037646.523    24037649.660
        42.000          22.000
 120873363.619 7  94187017.41644  23001426.211    23001430.461
        43.700          27.500
